{
"type": "FeatureCollection",
"name": "ward27700",
"crs": { "type": "name", "properties": { "name": "urn:ogc:def:crs:EPSG::27700" } },
"features": [
{ "type": "Feature", "properties": { "NAME": "Chessington South", "GSS_CODE": "E05000405", "DISTRICT": "Kingston upon Thames", "LAGSSCODE": "E09000021", "HECTARES": 755.173, "NONLD_AREA": 0.0 }, "geometry": null },
{ "type": "Feature", "properties": { "NAME": "Tolworth and Hook Rise", "GSS_CODE": "E05000414", "DISTRICT": "Kingston upon Thames", "LAGSSCODE": "E09000021", "HECTARES": 259.464, "NONLD_AREA": 0.0 }, "geometry": null },
{ "type": "Feature", "properties": { "NAME": "Berrylands", "GSS_CODE": "E05000401", "DISTRICT": "Kingston upon Thames", "LAGSSCODE": "E09000021", "HECTARES": 145.39, "NONLD_AREA": 0.0 }, "geometry": null },
{ "type": "Feature", "properties": { "NAME": "Alexandra", "GSS_CODE": "E05000400", "DISTRICT": "Kingston upon Thames", "LAGSSCODE": "E09000021", "HECTARES": 268.506, "NONLD_AREA": 0.0 }, "geometry": null },
{ "type": "Feature", "properties": { "NAME": "Beverley", "GSS_CODE": "E05000402", "DISTRICT": "Kingston upon Thames", "LAGSSCODE": "E09000021", "HECTARES": 187.821, "NONLD_AREA": 0.0 }, "geometry": null },
{ "type": "Feature", "properties": { "NAME": "Coombe Hill", "GSS_CODE": "E05000406", "DISTRICT": "Kingston upon Thames", "LAGSSCODE": "E09000021", "HECTARES": 442.17, "NONLD_AREA": 0.0 }, "geometry": null },
{ "type": "Feature", "properties": { "NAME": "Chessington North and Hook", "GSS_CODE": "E05000404", "DISTRICT": "Kingston upon Thames", "LAGSSCODE": "E09000021", "HECTARES": 192.98, "NONLD_AREA": 0.0 }, "geometry": null },
{ "type": "Feature", "properties": { "NAME": "Surbiton Hill", "GSS_CODE": "E05000413", "DISTRICT": "Kingston upon Thames", "LAGSSCODE": "E09000021", "HECTARES": 166.482, "NONLD_AREA": 0.0 }, "geometry": null },
{ "type": "Feature", "properties": { "NAME": "Old Malden", "GSS_CODE": "E05000410", "DISTRICT": "Kingston upon Thames", "LAGSSCODE": "E09000021", "HECTARES": 180.016, "NONLD_AREA": 0.0 }, "geometry": null },
{ "type": "Feature", "properties": { "NAME": "St. Mark's", "GSS_CODE": "E05000412", "DISTRICT": "Kingston upon Thames", "LAGSSCODE": "E09000021", "HECTARES": 137.578, "NONLD_AREA": 0.0 }, "geometry": null },
{ "type": "Feature", "properties": { "NAME": "Grove", "GSS_CODE": "E05000408", "DISTRICT": "Kingston upon Thames", "LAGSSCODE": "E09000021", "HECTARES": 192.034, "NONLD_AREA": 0.0 }, "geometry": null },
{ "type": "Feature", "properties": { "NAME": "Canbury", "GSS_CODE": "E05000403", "DISTRICT": "Kingston upon Thames", "LAGSSCODE": "E09000021", "HECTARES": 124.241, "NONLD_AREA": 0.0 }, "geometry": null },
{ "type": "Feature", "properties": { "NAME": "Norbiton", "GSS_CODE": "E05000409", "DISTRICT": "Kingston upon Thames", "LAGSSCODE": "E09000021", "HECTARES": 134.711, "NONLD_AREA": 0.0 }, "geometry": null },
{ "type": "Feature", "properties": { "NAME": "Coombe Vale", "GSS_CODE": "E05000407", "DISTRICT": "Kingston upon Thames", "LAGSSCODE": "E09000021", "HECTARES": 164.71, "NONLD_AREA": 0.0 }, "geometry": null },
{ "type": "Feature", "properties": { "NAME": "St. James", "GSS_CODE": "E05000411", "DISTRICT": "Kingston upon Thames", "LAGSSCODE": "E09000021", "HECTARES": 216.584, "NONLD_AREA": 0.0 }, "geometry": null },
{ "type": "Feature", "properties": { "NAME": "Tudor", "GSS_CODE": "E05000415", "DISTRICT": "Kingston upon Thames", "LAGSSCODE": "E09000021", "HECTARES": 158.255, "NONLD_AREA": 0.0 }, "geometry": null },
{ "type": "Feature", "properties": { "NAME": "Coulsdon Town", "GSS_CODE": "E05011466", "DISTRICT": "Croydon", "LAGSSCODE": "E09000008", "HECTARES": 452.138, "NONLD_AREA": 0.0 }, "geometry": null },
{ "type": "Feature", "properties": { "NAME": "Purley & Woodcote", "GSS_CODE": "E05011476", "DISTRICT": "Croydon", "LAGSSCODE": "E09000008", "HECTARES": 509.713, "NONLD_AREA": 0.0 }, "geometry": null },
{ "type": "Feature", "properties": { "NAME": "Waddon", "GSS_CODE": "E05011487", "DISTRICT": "Croydon", "LAGSSCODE": "E09000008", "HECTARES": 391.981, "NONLD_AREA": 0.0 }, "geometry": null },
{ "type": "Feature", "properties": { "NAME": "Old Coulsdon", "GSS_CODE": "E05011474", "DISTRICT": "Croydon", "LAGSSCODE": "E09000008", "HECTARES": 693.502, "NONLD_AREA": 0.0 }, "geometry": null },
{ "type": "Feature", "properties": { "NAME": "Kenley", "GSS_CODE": "E05011469", "DISTRICT": "Croydon", "LAGSSCODE": "E09000008", "HECTARES": 519.683, "NONLD_AREA": 0.0 }, "geometry": null },
{ "type": "Feature", "properties": { "NAME": "Purley Oaks & Riddlesdown", "GSS_CODE": "E05011477", "DISTRICT": "Croydon", "LAGSSCODE": "E09000008", "HECTARES": 245.126, "NONLD_AREA": 0.0 }, "geometry": null },
{ "type": "Feature", "properties": { "NAME": "Sanderstead", "GSS_CODE": "E05011478", "DISTRICT": "Croydon", "LAGSSCODE": "E09000008", "HECTARES": 753.708, "NONLD_AREA": 0.0 }, "geometry": null },
{ "type": "Feature", "properties": { "NAME": "Selsdon Vale & Forestdale", "GSS_CODE": "E05011481", "DISTRICT": "Croydon", "LAGSSCODE": "E09000008", "HECTARES": 490.954, "NONLD_AREA": 0.0 }, "geometry": null },
{ "type": "Feature", "properties": { "NAME": "South Croydon", "GSS_CODE": "E05011484", "DISTRICT": "Croydon", "LAGSSCODE": "E09000008", "HECTARES": 394.407, "NONLD_AREA": 0.0 }, "geometry": null },
{ "type": "Feature", "properties": { "NAME": "Selsdon & Addington Village", "GSS_CODE": "E05011480", "DISTRICT": "Croydon", "LAGSSCODE": "E09000008", "HECTARES": 521.087, "NONLD_AREA": 0.0 }, "geometry": null },
{ "type": "Feature", "properties": { "NAME": "South Norwood", "GSS_CODE": "E05011485", "DISTRICT": "Croydon", "LAGSSCODE": "E09000008", "HECTARES": 214.118, "NONLD_AREA": 0.0 }, "geometry": null },
{ "type": "Feature", "properties": { "NAME": "Shirly South", "GSS_CODE": "E05011483", "DISTRICT": "Croydon", "LAGSSCODE": "E09000008", "HECTARES": 455.058, "NONLD_AREA": 0.0 }, "geometry": null },
{ "type": "Feature", "properties": { "NAME": "Shirley North", "GSS_CODE": "E05011482", "DISTRICT": "Croydon", "LAGSSCODE": "E09000008", "HECTARES": 310.902, "NONLD_AREA": 0.0 }, "geometry": null },
{ "type": "Feature", "properties": { "NAME": "Broad Green", "GSS_CODE": "E05011465", "DISTRICT": "Croydon", "LAGSSCODE": "E09000008", "HECTARES": 195.215, "NONLD_AREA": 0.0 }, "geometry": null },
{ "type": "Feature", "properties": { "NAME": "West Thornton", "GSS_CODE": "E05011488", "DISTRICT": "Croydon", "LAGSSCODE": "E09000008", "HECTARES": 197.117, "NONLD_AREA": 0.0 }, "geometry": null },
{ "type": "Feature", "properties": { "NAME": "Bensham Manor", "GSS_CODE": "E05011464", "DISTRICT": "Croydon", "LAGSSCODE": "E09000008", "HECTARES": 144.147, "NONLD_AREA": 0.0 }, "geometry": null },
{ "type": "Feature", "properties": { "NAME": "Norbury & Pollards Hill", "GSS_CODE": "E05011472", "DISTRICT": "Croydon", "LAGSSCODE": "E09000008", "HECTARES": 134.046, "NONLD_AREA": 0.0 }, "geometry": null },
{ "type": "Feature", "properties": { "NAME": "Norbury Park", "GSS_CODE": "E05011473", "DISTRICT": "Croydon", "LAGSSCODE": "E09000008", "HECTARES": 225.926, "NONLD_AREA": 0.0 }, "geometry": null },
{ "type": "Feature", "properties": { "NAME": "New Addington South", "GSS_CODE": "E05011471", "DISTRICT": "Croydon", "LAGSSCODE": "E09000008", "HECTARES": 248.835, "NONLD_AREA": 0.0 }, "geometry": null },
{ "type": "Feature", "properties": { "NAME": "Fairfield", "GSS_CODE": "E05011468", "DISTRICT": "Croydon", "LAGSSCODE": "E09000008", "HECTARES": 146.745, "NONLD_AREA": 0.0 }, "geometry": null },
{ "type": "Feature", "properties": { "NAME": "Park Hill & Whitgift", "GSS_CODE": "E05011475", "DISTRICT": "Croydon", "LAGSSCODE": "E09000008", "HECTARES": 198.756, "NONLD_AREA": 0.0 }, "geometry": null },
{ "type": "Feature", "properties": { "NAME": "Addiscombe West", "GSS_CODE": "E05011463", "DISTRICT": "Croydon", "LAGSSCODE": "E09000008", "HECTARES": 134.305, "NONLD_AREA": 0.0 }, "geometry": null },
{ "type": "Feature", "properties": { "NAME": "Addiscombe East", "GSS_CODE": "E05011462", "DISTRICT": "Croydon", "LAGSSCODE": "E09000008", "HECTARES": 154.055, "NONLD_AREA": 0.0 }, "geometry": null },
{ "type": "Feature", "properties": { "NAME": "New Addington North", "GSS_CODE": "E05011470", "DISTRICT": "Croydon", "LAGSSCODE": "E09000008", "HECTARES": 141.477, "NONLD_AREA": 0.0 }, "geometry": null },
{ "type": "Feature", "properties": { "NAME": "Selhurst", "GSS_CODE": "E05011479", "DISTRICT": "Croydon", "LAGSSCODE": "E09000008", "HECTARES": 130.739, "NONLD_AREA": 0.0 }, "geometry": null },
{ "type": "Feature", "properties": { "NAME": "Woodside", "GSS_CODE": "E05011489", "DISTRICT": "Croydon", "LAGSSCODE": "E09000008", "HECTARES": 215.022, "NONLD_AREA": 0.0 }, "geometry": null },
{ "type": "Feature", "properties": { "NAME": "Thornton Heath", "GSS_CODE": "E05011486", "DISTRICT": "Croydon", "LAGSSCODE": "E09000008", "HECTARES": 172.422, "NONLD_AREA": 0.0 }, "geometry": null },
{ "type": "Feature", "properties": { "NAME": "Crystal Palace & Upper Norwood", "GSS_CODE": "E05011467", "DISTRICT": "Croydon", "LAGSSCODE": "E09000008", "HECTARES": 258.256, "NONLD_AREA": 0.0 }, "geometry": null },
{ "type": "Feature", "properties": { "NAME": "Darwin", "GSS_CODE": "E05000117", "DISTRICT": "Bromley", "LAGSSCODE": "E09000006", "HECTARES": 2903.96, "NONLD_AREA": 0.0 }, "geometry": null },
{ "type": "Feature", "properties": { "NAME": "Hayes and Coney Hall", "GSS_CODE": "E05000119", "DISTRICT": "Bromley", "LAGSSCODE": "E09000006", "HECTARES": 1082.306, "NONLD_AREA": 0.0 }, "geometry": null },
{ "type": "Feature", "properties": { "NAME": "Bromley Common and Keston", "GSS_CODE": "E05000108", "DISTRICT": "Bromley", "LAGSSCODE": "E09000006", "HECTARES": 830.82, "NONLD_AREA": 0.0 }, "geometry": null },
{ "type": "Feature", "properties": { "NAME": "Chelsfield and Pratts Bottom", "GSS_CODE": "E05000110", "DISTRICT": "Bromley", "LAGSSCODE": "E09000006", "HECTARES": 1256.32, "NONLD_AREA": 0.0 }, "geometry": null },
{ "type": "Feature", "properties": { "NAME": "Biggin Hill", "GSS_CODE": "E05000107", "DISTRICT": "Bromley", "LAGSSCODE": "E09000006", "HECTARES": 828.039, "NONLD_AREA": 0.0 }, "geometry": null },
{ "type": "Feature", "properties": { "NAME": "West Wickham", "GSS_CODE": "E05000127", "DISTRICT": "Bromley", "LAGSSCODE": "E09000006", "HECTARES": 441.047, "NONLD_AREA": 0.0 }, "geometry": null },
{ "type": "Feature", "properties": { "NAME": "Clock House", "GSS_CODE": "E05000112", "DISTRICT": "Bromley", "LAGSSCODE": "E09000006", "HECTARES": 226.647, "NONLD_AREA": 0.0 }, "geometry": null },
{ "type": "Feature", "properties": { "NAME": "Kelsey and Eden Park", "GSS_CODE": "E05000120", "DISTRICT": "Bromley", "LAGSSCODE": "E09000006", "HECTARES": 519.895, "NONLD_AREA": 0.0 }, "geometry": null },
{ "type": "Feature", "properties": { "NAME": "Farnborough and Crofton", "GSS_CODE": "E05000118", "DISTRICT": "Bromley", "LAGSSCODE": "E09000006", "HECTARES": 700.584, "NONLD_AREA": 0.0 }, "geometry": null },
{ "type": "Feature", "properties": { "NAME": "Shortlands", "GSS_CODE": "E05000126", "DISTRICT": "Bromley", "LAGSSCODE": "E09000006", "HECTARES": 245.665, "NONLD_AREA": 0.0 }, "geometry": null },
{ "type": "Feature", "properties": { "NAME": "Bromley Town", "GSS_CODE": "E05000109", "DISTRICT": "Bromley", "LAGSSCODE": "E09000006", "HECTARES": 371.656, "NONLD_AREA": 0.0 }, "geometry": null },
{ "type": "Feature", "properties": { "NAME": "Bickley", "GSS_CODE": "E05000106", "DISTRICT": "Bromley", "LAGSSCODE": "E09000006", "HECTARES": 486.913, "NONLD_AREA": 0.0 }, "geometry": null },
{ "type": "Feature", "properties": { "NAME": "Petts Wood and Knoll", "GSS_CODE": "E05000124", "DISTRICT": "Bromley", "LAGSSCODE": "E09000006", "HECTARES": 430.127, "NONLD_AREA": 0.0 }, "geometry": null },
{ "type": "Feature", "properties": { "NAME": "Crystal Palace", "GSS_CODE": "E05000116", "DISTRICT": "Bromley", "LAGSSCODE": "E09000006", "HECTARES": 229.114, "NONLD_AREA": 0.0 }, "geometry": null },
{ "type": "Feature", "properties": { "NAME": "Penge and Cator", "GSS_CODE": "E05000123", "DISTRICT": "Bromley", "LAGSSCODE": "E09000006", "HECTARES": 295.972, "NONLD_AREA": 0.0 }, "geometry": null },
{ "type": "Feature", "properties": { "NAME": "Copers Cope", "GSS_CODE": "E05000113", "DISTRICT": "Bromley", "LAGSSCODE": "E09000006", "HECTARES": 328.692, "NONLD_AREA": 0.0 }, "geometry": null },
{ "type": "Feature", "properties": { "NAME": "Plaistow and Sundridge", "GSS_CODE": "E05000125", "DISTRICT": "Bromley", "LAGSSCODE": "E09000006", "HECTARES": 400.094, "NONLD_AREA": 0.0 }, "geometry": null },
{ "type": "Feature", "properties": { "NAME": "Chislehurst", "GSS_CODE": "E05000111", "DISTRICT": "Bromley", "LAGSSCODE": "E09000006", "HECTARES": 1044.12, "NONLD_AREA": 0.0 }, "geometry": null },
{ "type": "Feature", "properties": { "NAME": "Mottingham and Chislehurst North", "GSS_CODE": "E05000121", "DISTRICT": "Bromley", "LAGSSCODE": "E09000006", "HECTARES": 244.184, "NONLD_AREA": 0.0 }, "geometry": null },
{ "type": "Feature", "properties": { "NAME": "Orpington", "GSS_CODE": "E05000122", "DISTRICT": "Bromley", "LAGSSCODE": "E09000006", "HECTARES": 425.616, "NONLD_AREA": 0.0 }, "geometry": null },
{ "type": "Feature", "properties": { "NAME": "Cray Valley West", "GSS_CODE": "E05000115", "DISTRICT": "Bromley", "LAGSSCODE": "E09000006", "HECTARES": 393.85, "NONLD_AREA": 0.0 }, "geometry": null },
{ "type": "Feature", "properties": { "NAME": "Cray Valley East", "GSS_CODE": "E05000114", "DISTRICT": "Bromley", "LAGSSCODE": "E09000006", "HECTARES": 1327.866, "NONLD_AREA": 0.0 }, "geometry": null },
{ "type": "Feature", "properties": { "NAME": "Bedfont", "GSS_CODE": "E05000346", "DISTRICT": "Hounslow", "LAGSSCODE": "E09000018", "HECTARES": 444.841, "NONLD_AREA": 0.0 }, "geometry": null },
{ "type": "Feature", "properties": { "NAME": "Hanworth", "GSS_CODE": "E05000353", "DISTRICT": "Hounslow", "LAGSSCODE": "E09000018", "HECTARES": 323.258, "NONLD_AREA": 0.0 }, "geometry": null },
{ "type": "Feature", "properties": { "NAME": "Cranford", "GSS_CODE": "E05000350", "DISTRICT": "Hounslow", "LAGSSCODE": "E09000018", "HECTARES": 272.63, "NONLD_AREA": 0.0 }, "geometry": null },
{ "type": "Feature", "properties": { "NAME": "Syon", "GSS_CODE": "E05000364", "DISTRICT": "Hounslow", "LAGSSCODE": "E09000018", "HECTARES": 285.378, "NONLD_AREA": 13.187 }, "geometry": null },
{ "type": "Feature", "properties": { "NAME": "Heston West", "GSS_CODE": "E05000357", "DISTRICT": "Hounslow", "LAGSSCODE": "E09000018", "HECTARES": 382.657, "NONLD_AREA": 0.0 }, "geometry": null },
{ "type": "Feature", "properties": { "NAME": "Heston East", "GSS_CODE": "E05000356", "DISTRICT": "Hounslow", "LAGSSCODE": "E09000018", "HECTARES": 205.913, "NONLD_AREA": 0.0 }, "geometry": null },
{ "type": "Feature", "properties": { "NAME": "Osterley and Spring Grove", "GSS_CODE": "E05000363", "DISTRICT": "Hounslow", "LAGSSCODE": "E09000018", "HECTARES": 627.784, "NONLD_AREA": 0.0 }, "geometry": null },
{ "type": "Feature", "properties": { "NAME": "Brentford", "GSS_CODE": "E05000347", "DISTRICT": "Hounslow", "LAGSSCODE": "E09000018", "HECTARES": 318.351, "NONLD_AREA": 3.263 }, "geometry": null },
{ "type": "Feature", "properties": { "NAME": "Chiswick Homefields", "GSS_CODE": "E05000348", "DISTRICT": "Hounslow", "LAGSSCODE": "E09000018", "HECTARES": 225.923, "NONLD_AREA": 22.286 }, "geometry": null },
{ "type": "Feature", "properties": { "NAME": "Feltham West", "GSS_CODE": "E05000352", "DISTRICT": "Hounslow", "LAGSSCODE": "E09000018", "HECTARES": 318.105, "NONLD_AREA": 0.0 }, "geometry": null },
{ "type": "Feature", "properties": { "NAME": "Hanworth Park", "GSS_CODE": "E05000354", "DISTRICT": "Hounslow", "LAGSSCODE": "E09000018", "HECTARES": 366.126, "NONLD_AREA": 0.0 }, "geometry": null },
{ "type": "Feature", "properties": { "NAME": "Feltham North", "GSS_CODE": "E05000351", "DISTRICT": "Hounslow", "LAGSSCODE": "E09000018", "HECTARES": 338.448, "NONLD_AREA": 0.0 }, "geometry": null },
{ "type": "Feature", "properties": { "NAME": "Hounslow Heath", "GSS_CODE": "E05000359", "DISTRICT": "Hounslow", "LAGSSCODE": "E09000018", "HECTARES": 278.178, "NONLD_AREA": 0.0 }, "geometry": null },
{ "type": "Feature", "properties": { "NAME": "Hounslow West", "GSS_CODE": "E05000361", "DISTRICT": "Hounslow", "LAGSSCODE": "E09000018", "HECTARES": 162.018, "NONLD_AREA": 0.0 }, "geometry": null },
{ "type": "Feature", "properties": { "NAME": "Heston Central", "GSS_CODE": "E05000355", "DISTRICT": "Hounslow", "LAGSSCODE": "E09000018", "HECTARES": 168.478, "NONLD_AREA": 0.0 }, "geometry": null },
{ "type": "Feature", "properties": { "NAME": "Hounslow South", "GSS_CODE": "E05000360", "DISTRICT": "Hounslow", "LAGSSCODE": "E09000018", "HECTARES": 179.011, "NONLD_AREA": 0.0 }, "geometry": null },
{ "type": "Feature", "properties": { "NAME": "Isleworth", "GSS_CODE": "E05000362", "DISTRICT": "Hounslow", "LAGSSCODE": "E09000018", "HECTARES": 203.089, "NONLD_AREA": 6.436 }, "geometry": null },
{ "type": "Feature", "properties": { "NAME": "Hounslow Central", "GSS_CODE": "E05000358", "DISTRICT": "Hounslow", "LAGSSCODE": "E09000018", "HECTARES": 173.393, "NONLD_AREA": 0.0 }, "geometry": null },
{ "type": "Feature", "properties": { "NAME": "Chiswick Riverside", "GSS_CODE": "E05000349", "DISTRICT": "Hounslow", "LAGSSCODE": "E09000018", "HECTARES": 208.007, "NONLD_AREA": 15.584 }, "geometry": null },
{ "type": "Feature", "properties": { "NAME": "Turnham Green", "GSS_CODE": "E05000365", "DISTRICT": "Hounslow", "LAGSSCODE": "E09000018", "HECTARES": 176.953, "NONLD_AREA": 0.0 }, "geometry": null },
{ "type": "Feature", "properties": { "NAME": "Norwood Green", "GSS_CODE": "E05000186", "DISTRICT": "Ealing", "LAGSSCODE": "E09000009", "HECTARES": 379.609, "NONLD_AREA": 0.0 }, "geometry": null },
{ "type": "Feature", "properties": { "NAME": "Southall Green", "GSS_CODE": "E05000190", "DISTRICT": "Ealing", "LAGSSCODE": "E09000009", "HECTARES": 158.616, "NONLD_AREA": 0.0 }, "geometry": null },
{ "type": "Feature", "properties": { "NAME": "Northolt West End", "GSS_CODE": "E05000185", "DISTRICT": "Ealing", "LAGSSCODE": "E09000009", "HECTARES": 354.536, "NONLD_AREA": 0.0 }, "geometry": null },
{ "type": "Feature", "properties": { "NAME": "Dormers Wells", "GSS_CODE": "E05000172", "DISTRICT": "Ealing", "LAGSSCODE": "E09000009", "HECTARES": 225.73, "NONLD_AREA": 0.0 }, "geometry": null },
{ "type": "Feature", "properties": { "NAME": "Greenford Broadway", "GSS_CODE": "E05000177", "DISTRICT": "Ealing", "LAGSSCODE": "E09000009", "HECTARES": 251.669, "NONLD_AREA": 0.0 }, "geometry": null },
{ "type": "Feature", "properties": { "NAME": "North Greenford", "GSS_CODE": "E05000183", "DISTRICT": "Ealing", "LAGSSCODE": "E09000009", "HECTARES": 325.737, "NONLD_AREA": 0.0 }, "geometry": null },
{ "type": "Feature", "properties": { "NAME": "Northfield", "GSS_CODE": "E05000182", "DISTRICT": "Ealing", "LAGSSCODE": "E09000009", "HECTARES": 154.011, "NONLD_AREA": 0.0 }, "geometry": null },
{ "type": "Feature", "properties": { "NAME": "East Acton", "GSS_CODE": "E05000175", "DISTRICT": "Ealing", "LAGSSCODE": "E09000009", "HECTARES": 427.588, "NONLD_AREA": 0.0 }, "geometry": null },
{ "type": "Feature", "properties": { "NAME": "Southall Broadway", "GSS_CODE": "E05000189", "DISTRICT": "Ealing", "LAGSSCODE": "E09000009", "HECTARES": 161.725, "NONLD_AREA": 0.0 }, "geometry": null },
{ "type": "Feature", "properties": { "NAME": "Elthorne", "GSS_CODE": "E05000176", "DISTRICT": "Ealing", "LAGSSCODE": "E09000009", "HECTARES": 199.963, "NONLD_AREA": 0.0 }, "geometry": null },
{ "type": "Feature", "properties": { "NAME": "Walpole", "GSS_CODE": "E05000192", "DISTRICT": "Ealing", "LAGSSCODE": "E09000009", "HECTARES": 146.596, "NONLD_AREA": 0.0 }, "geometry": null },
{ "type": "Feature", "properties": { "NAME": "Lady Margaret", "GSS_CODE": "E05000181", "DISTRICT": "Ealing", "LAGSSCODE": "E09000009", "HECTARES": 154.182, "NONLD_AREA": 0.0 }, "geometry": null },
{ "type": "Feature", "properties": { "NAME": "Northolt Mandeville", "GSS_CODE": "E05000184", "DISTRICT": "Ealing", "LAGSSCODE": "E09000009", "HECTARES": 275.664, "NONLD_AREA": 0.0 }, "geometry": null },
{ "type": "Feature", "properties": { "NAME": "Hobbayne", "GSS_CODE": "E05000180", "DISTRICT": "Ealing", "LAGSSCODE": "E09000009", "HECTARES": 220.937, "NONLD_AREA": 0.0 }, "geometry": null },
{ "type": "Feature", "properties": { "NAME": "Cleveland", "GSS_CODE": "E05000171", "DISTRICT": "Ealing", "LAGSSCODE": "E09000009", "HECTARES": 222.856, "NONLD_AREA": 0.0 }, "geometry": null },
{ "type": "Feature", "properties": { "NAME": "Greenford Green", "GSS_CODE": "E05000178", "DISTRICT": "Ealing", "LAGSSCODE": "E09000009", "HECTARES": 338.477, "NONLD_AREA": 0.0 }, "geometry": null },
{ "type": "Feature", "properties": { "NAME": "Perivale", "GSS_CODE": "E05000187", "DISTRICT": "Ealing", "LAGSSCODE": "E09000009", "HECTARES": 336.775, "NONLD_AREA": 0.0 }, "geometry": null },
{ "type": "Feature", "properties": { "NAME": "Ealing Common", "GSS_CODE": "E05000174", "DISTRICT": "Ealing", "LAGSSCODE": "E09000009", "HECTARES": 214.106, "NONLD_AREA": 0.0 }, "geometry": null },
{ "type": "Feature", "properties": { "NAME": "Ealing Broadway", "GSS_CODE": "E05000173", "DISTRICT": "Ealing", "LAGSSCODE": "E09000009", "HECTARES": 185.676, "NONLD_AREA": 0.0 }, "geometry": null },
{ "type": "Feature", "properties": { "NAME": "South Acton", "GSS_CODE": "E05000188", "DISTRICT": "Ealing", "LAGSSCODE": "E09000009", "HECTARES": 171.92, "NONLD_AREA": 0.0 }, "geometry": null },
{ "type": "Feature", "properties": { "NAME": "Southfield", "GSS_CODE": "E05000191", "DISTRICT": "Ealing", "LAGSSCODE": "E09000009", "HECTARES": 142.869, "NONLD_AREA": 0.0 }, "geometry": null },
{ "type": "Feature", "properties": { "NAME": "Acton Central", "GSS_CODE": "E05000170", "DISTRICT": "Ealing", "LAGSSCODE": "E09000009", "HECTARES": 177.463, "NONLD_AREA": 0.0 }, "geometry": null },
{ "type": "Feature", "properties": { "NAME": "Hanger Hill", "GSS_CODE": "E05000179", "DISTRICT": "Ealing", "LAGSSCODE": "E09000009", "HECTARES": 327.724, "NONLD_AREA": 0.0 }, "geometry": null },
{ "type": "Feature", "properties": { "NAME": "Upminster", "GSS_CODE": "E05000323", "DISTRICT": "Havering", "LAGSSCODE": "E09000016", "HECTARES": 2253.736, "NONLD_AREA": 0.0 }, "geometry": null },
{ "type": "Feature", "properties": { "NAME": "Rainham and Wennington", "GSS_CODE": "E05000318", "DISTRICT": "Havering", "LAGSSCODE": "E09000016", "HECTARES": 1688.01, "NONLD_AREA": 154.284 }, "geometry": null },
{ "type": "Feature", "properties": { "NAME": "South Hornchurch", "GSS_CODE": "E05000321", "DISTRICT": "Havering", "LAGSSCODE": "E09000016", "HECTARES": 687.318, "NONLD_AREA": 56.479 }, "geometry": null },
{ "type": "Feature", "properties": { "NAME": "Elm Park", "GSS_CODE": "E05000308", "DISTRICT": "Havering", "LAGSSCODE": "E09000016", "HECTARES": 366.535, "NONLD_AREA": 0.0 }, "geometry": null },
{ "type": "Feature", "properties": { "NAME": "Brooklands", "GSS_CODE": "E05000306", "DISTRICT": "Havering", "LAGSSCODE": "E09000016", "HECTARES": 420.264, "NONLD_AREA": 0.0 }, "geometry": null },
{ "type": "Feature", "properties": { "NAME": "Romford Town", "GSS_CODE": "E05000319", "DISTRICT": "Havering", "LAGSSCODE": "E09000016", "HECTARES": 286.473, "NONLD_AREA": 0.0 }, "geometry": null },
{ "type": "Feature", "properties": { "NAME": "Mawneys", "GSS_CODE": "E05000316", "DISTRICT": "Havering", "LAGSSCODE": "E09000016", "HECTARES": 304.261, "NONLD_AREA": 0.0 }, "geometry": null },
{ "type": "Feature", "properties": { "NAME": "Pettits", "GSS_CODE": "E05000317", "DISTRICT": "Havering", "LAGSSCODE": "E09000016", "HECTARES": 395.457, "NONLD_AREA": 0.0 }, "geometry": null },
{ "type": "Feature", "properties": { "NAME": "Hacton", "GSS_CODE": "E05000311", "DISTRICT": "Havering", "LAGSSCODE": "E09000016", "HECTARES": 246.542, "NONLD_AREA": 0.0 }, "geometry": null },
{ "type": "Feature", "properties": { "NAME": "St. Andrew's", "GSS_CODE": "E05000320", "DISTRICT": "Havering", "LAGSSCODE": "E09000016", "HECTARES": 267.712, "NONLD_AREA": 0.0 }, "geometry": null },
{ "type": "Feature", "properties": { "NAME": "Emerson Park", "GSS_CODE": "E05000309", "DISTRICT": "Havering", "LAGSSCODE": "E09000016", "HECTARES": 464.243, "NONLD_AREA": 0.0 }, "geometry": null },
{ "type": "Feature", "properties": { "NAME": "Squirrel's Heath", "GSS_CODE": "E05000322", "DISTRICT": "Havering", "LAGSSCODE": "E09000016", "HECTARES": 265.147, "NONLD_AREA": 0.0 }, "geometry": null },
{ "type": "Feature", "properties": { "NAME": "Harold Wood", "GSS_CODE": "E05000312", "DISTRICT": "Havering", "LAGSSCODE": "E09000016", "HECTARES": 758.973, "NONLD_AREA": 0.0 }, "geometry": null },
{ "type": "Feature", "properties": { "NAME": "Cranham", "GSS_CODE": "E05000307", "DISTRICT": "Havering", "LAGSSCODE": "E09000016", "HECTARES": 655.501, "NONLD_AREA": 0.0 }, "geometry": null },
{ "type": "Feature", "properties": { "NAME": "Havering Park", "GSS_CODE": "E05000313", "DISTRICT": "Havering", "LAGSSCODE": "E09000016", "HECTARES": 978.33, "NONLD_AREA": 0.0 }, "geometry": null },
{ "type": "Feature", "properties": { "NAME": "Heaton", "GSS_CODE": "E05000314", "DISTRICT": "Havering", "LAGSSCODE": "E09000016", "HECTARES": 341.564, "NONLD_AREA": 0.0 }, "geometry": null },
{ "type": "Feature", "properties": { "NAME": "Gooshays", "GSS_CODE": "E05000310", "DISTRICT": "Havering", "LAGSSCODE": "E09000016", "HECTARES": 775.896, "NONLD_AREA": 0.0 }, "geometry": null },
{ "type": "Feature", "properties": { "NAME": "Hylands", "GSS_CODE": "E05000315", "DISTRICT": "Havering", "LAGSSCODE": "E09000016", "HECTARES": 289.774, "NONLD_AREA": 0.0 }, "geometry": null },
{ "type": "Feature", "properties": { "NAME": "Heathrow Villages", "GSS_CODE": "E05000331", "DISTRICT": "Hillingdon", "LAGSSCODE": "E09000017", "HECTARES": 2352.117, "NONLD_AREA": 0.0 }, "geometry": null },
{ "type": "Feature", "properties": { "NAME": "Harefield", "GSS_CODE": "E05000330", "DISTRICT": "Hillingdon", "LAGSSCODE": "E09000017", "HECTARES": 1522.704, "NONLD_AREA": 0.0 }, "geometry": null },
{ "type": "Feature", "properties": { "NAME": "West Drayton", "GSS_CODE": "E05000342", "DISTRICT": "Hillingdon", "LAGSSCODE": "E09000017", "HECTARES": 349.07, "NONLD_AREA": 0.0 }, "geometry": null },
{ "type": "Feature", "properties": { "NAME": "Yiewsley", "GSS_CODE": "E05000345", "DISTRICT": "Hillingdon", "LAGSSCODE": "E09000017", "HECTARES": 402.251, "NONLD_AREA": 0.0 }, "geometry": null },
{ "type": "Feature", "properties": { "NAME": "Uxbridge South", "GSS_CODE": "E05000341", "DISTRICT": "Hillingdon", "LAGSSCODE": "E09000017", "HECTARES": 311.447, "NONLD_AREA": 0.0 }, "geometry": null },
{ "type": "Feature", "properties": { "NAME": "Brunel", "GSS_CODE": "E05000326", "DISTRICT": "Hillingdon", "LAGSSCODE": "E09000017", "HECTARES": 327.691, "NONLD_AREA": 0.0 }, "geometry": null },
{ "type": "Feature", "properties": { "NAME": "Uxbridge North", "GSS_CODE": "E05000340", "DISTRICT": "Hillingdon", "LAGSSCODE": "E09000017", "HECTARES": 464.118, "NONLD_AREA": 0.0 }, "geometry": null },
{ "type": "Feature", "properties": { "NAME": "Hillingdon East", "GSS_CODE": "E05000332", "DISTRICT": "Hillingdon", "LAGSSCODE": "E09000017", "HECTARES": 359.812, "NONLD_AREA": 0.0 }, "geometry": null },
{ "type": "Feature", "properties": { "NAME": "Ickenham", "GSS_CODE": "E05000333", "DISTRICT": "Hillingdon", "LAGSSCODE": "E09000017", "HECTARES": 620.442, "NONLD_AREA": 0.0 }, "geometry": null },
{ "type": "Feature", "properties": { "NAME": "West Ruislip", "GSS_CODE": "E05000343", "DISTRICT": "Hillingdon", "LAGSSCODE": "E09000017", "HECTARES": 438.74, "NONLD_AREA": 0.0 }, "geometry": null },
{ "type": "Feature", "properties": { "NAME": "Northwood", "GSS_CODE": "E05000335", "DISTRICT": "Hillingdon", "LAGSSCODE": "E09000017", "HECTARES": 739.794, "NONLD_AREA": 0.0 }, "geometry": null },
{ "type": "Feature", "properties": { "NAME": "South Ruislip", "GSS_CODE": "E05000338", "DISTRICT": "Hillingdon", "LAGSSCODE": "E09000017", "HECTARES": 741.795, "NONLD_AREA": 0.0 }, "geometry": null },
{ "type": "Feature", "properties": { "NAME": "Manor", "GSS_CODE": "E05000334", "DISTRICT": "Hillingdon", "LAGSSCODE": "E09000017", "HECTARES": 197.418, "NONLD_AREA": 0.0 }, "geometry": null },
{ "type": "Feature", "properties": { "NAME": "Eastcote and East Ruislip", "GSS_CODE": "E05000329", "DISTRICT": "Hillingdon", "LAGSSCODE": "E09000017", "HECTARES": 406.341, "NONLD_AREA": 0.0 }, "geometry": null },
{ "type": "Feature", "properties": { "NAME": "Northwood Hills", "GSS_CODE": "E05000336", "DISTRICT": "Hillingdon", "LAGSSCODE": "E09000017", "HECTARES": 332.854, "NONLD_AREA": 0.0 }, "geometry": null },
{ "type": "Feature", "properties": { "NAME": "Pinkwell", "GSS_CODE": "E05000337", "DISTRICT": "Hillingdon", "LAGSSCODE": "E09000017", "HECTARES": 274.833, "NONLD_AREA": 0.0 }, "geometry": null },
{ "type": "Feature", "properties": { "NAME": "Botwell", "GSS_CODE": "E05000325", "DISTRICT": "Hillingdon", "LAGSSCODE": "E09000017", "HECTARES": 436.277, "NONLD_AREA": 0.0 }, "geometry": null },
{ "type": "Feature", "properties": { "NAME": "Charville", "GSS_CODE": "E05000328", "DISTRICT": "Hillingdon", "LAGSSCODE": "E09000017", "HECTARES": 297.433, "NONLD_AREA": 0.0 }, "geometry": null },
{ "type": "Feature", "properties": { "NAME": "Townfield", "GSS_CODE": "E05000339", "DISTRICT": "Hillingdon", "LAGSSCODE": "E09000017", "HECTARES": 349.833, "NONLD_AREA": 0.0 }, "geometry": null },
{ "type": "Feature", "properties": { "NAME": "Barnhill", "GSS_CODE": "E05000324", "DISTRICT": "Hillingdon", "LAGSSCODE": "E09000017", "HECTARES": 211.821, "NONLD_AREA": 0.0 }, "geometry": null },
{ "type": "Feature", "properties": { "NAME": "Yeading", "GSS_CODE": "E05000344", "DISTRICT": "Hillingdon", "LAGSSCODE": "E09000017", "HECTARES": 232.126, "NONLD_AREA": 0.0 }, "geometry": null },
{ "type": "Feature", "properties": { "NAME": "Cavendish", "GSS_CODE": "E05000327", "DISTRICT": "Hillingdon", "LAGSSCODE": "E09000017", "HECTARES": 201.145, "NONLD_AREA": 0.0 }, "geometry": null },
{ "type": "Feature", "properties": { "NAME": "Roxeth", "GSS_CODE": "E05000302", "DISTRICT": "Harrow", "LAGSSCODE": "E09000015", "HECTARES": 157.492, "NONLD_AREA": 0.0 }, "geometry": null },
{ "type": "Feature", "properties": { "NAME": "Harrow on the Hill", "GSS_CODE": "E05000289", "DISTRICT": "Harrow", "LAGSSCODE": "E09000015", "HECTARES": 357.209, "NONLD_AREA": 0.0 }, "geometry": null },
{ "type": "Feature", "properties": { "NAME": "Pinner", "GSS_CODE": "E05000297", "DISTRICT": "Harrow", "LAGSSCODE": "E09000015", "HECTARES": 327.742, "NONLD_AREA": 0.0 }, "geometry": null },
{ "type": "Feature", "properties": { "NAME": "Pinner South", "GSS_CODE": "E05000298", "DISTRICT": "Harrow", "LAGSSCODE": "E09000015", "HECTARES": 234.561, "NONLD_AREA": 0.0 }, "geometry": null },
{ "type": "Feature", "properties": { "NAME": "Greenhill", "GSS_CODE": "E05000288", "DISTRICT": "Harrow", "LAGSSCODE": "E09000015", "HECTARES": 174.49, "NONLD_AREA": 0.0 }, "geometry": null },
{ "type": "Feature", "properties": { "NAME": "Headstone North", "GSS_CODE": "E05000292", "DISTRICT": "Harrow", "LAGSSCODE": "E09000015", "HECTARES": 329.634, "NONLD_AREA": 0.0 }, "geometry": null },
{ "type": "Feature", "properties": { "NAME": "Marlborough", "GSS_CODE": "E05000296", "DISTRICT": "Harrow", "LAGSSCODE": "E09000015", "HECTARES": 164.663, "NONLD_AREA": 0.0 }, "geometry": null },
{ "type": "Feature", "properties": { "NAME": "Harrow Weald", "GSS_CODE": "E05000290", "DISTRICT": "Harrow", "LAGSSCODE": "E09000015", "HECTARES": 458.973, "NONLD_AREA": 0.0 }, "geometry": null },
{ "type": "Feature", "properties": { "NAME": "Stanmore Park", "GSS_CODE": "E05000303", "DISTRICT": "Harrow", "LAGSSCODE": "E09000015", "HECTARES": 445.929, "NONLD_AREA": 0.0 }, "geometry": null },
{ "type": "Feature", "properties": { "NAME": "Canons", "GSS_CODE": "E05000286", "DISTRICT": "Harrow", "LAGSSCODE": "E09000015", "HECTARES": 562.632, "NONLD_AREA": 0.0 }, "geometry": null },
{ "type": "Feature", "properties": { "NAME": "Rayners Lane", "GSS_CODE": "E05000300", "DISTRICT": "Harrow", "LAGSSCODE": "E09000015", "HECTARES": 152.974, "NONLD_AREA": 0.0 }, "geometry": null },
{ "type": "Feature", "properties": { "NAME": "Roxbourne", "GSS_CODE": "E05000301", "DISTRICT": "Harrow", "LAGSSCODE": "E09000015", "HECTARES": 150.576, "NONLD_AREA": 0.0 }, "geometry": null },
{ "type": "Feature", "properties": { "NAME": "West Harrow", "GSS_CODE": "E05000305", "DISTRICT": "Harrow", "LAGSSCODE": "E09000015", "HECTARES": 151.462, "NONLD_AREA": 0.0 }, "geometry": null },
{ "type": "Feature", "properties": { "NAME": "Hatch End", "GSS_CODE": "E05000291", "DISTRICT": "Harrow", "LAGSSCODE": "E09000015", "HECTARES": 327.866, "NONLD_AREA": 0.0 }, "geometry": null },
{ "type": "Feature", "properties": { "NAME": "Headstone South", "GSS_CODE": "E05000293", "DISTRICT": "Harrow", "LAGSSCODE": "E09000015", "HECTARES": 146.764, "NONLD_AREA": 0.0 }, "geometry": null },
{ "type": "Feature", "properties": { "NAME": "Kenton West", "GSS_CODE": "E05000295", "DISTRICT": "Harrow", "LAGSSCODE": "E09000015", "HECTARES": 176.456, "NONLD_AREA": 0.0 }, "geometry": null },
{ "type": "Feature", "properties": { "NAME": "Wealdstone", "GSS_CODE": "E05000304", "DISTRICT": "Harrow", "LAGSSCODE": "E09000015", "HECTARES": 119.595, "NONLD_AREA": 0.0 }, "geometry": null },
{ "type": "Feature", "properties": { "NAME": "Belmont", "GSS_CODE": "E05000285", "DISTRICT": "Harrow", "LAGSSCODE": "E09000015", "HECTARES": 177.704, "NONLD_AREA": 0.0 }, "geometry": null },
{ "type": "Feature", "properties": { "NAME": "Kenton East", "GSS_CODE": "E05000294", "DISTRICT": "Harrow", "LAGSSCODE": "E09000015", "HECTARES": 127.926, "NONLD_AREA": 0.0 }, "geometry": null },
{ "type": "Feature", "properties": { "NAME": "Queensbury", "GSS_CODE": "E05000299", "DISTRICT": "Harrow", "LAGSSCODE": "E09000015", "HECTARES": 161.364, "NONLD_AREA": 0.0 }, "geometry": null },
{ "type": "Feature", "properties": { "NAME": "Edgware", "GSS_CODE": "E05000287", "DISTRICT": "Harrow", "LAGSSCODE": "E09000015", "HECTARES": 140.319, "NONLD_AREA": 0.0 }, "geometry": null },
{ "type": "Feature", "properties": { "NAME": "Northwick Park", "GSS_CODE": "E05000096", "DISTRICT": "Brent", "LAGSSCODE": "E09000005", "HECTARES": 267.991, "NONLD_AREA": 0.0 }, "geometry": null },
{ "type": "Feature", "properties": { "NAME": "Wembley Central", "GSS_CODE": "E05000104", "DISTRICT": "Brent", "LAGSSCODE": "E09000005", "HECTARES": 160.424, "NONLD_AREA": 0.0 }, "geometry": null },
{ "type": "Feature", "properties": { "NAME": "Preston", "GSS_CODE": "E05000097", "DISTRICT": "Brent", "LAGSSCODE": "E09000005", "HECTARES": 238.828, "NONLD_AREA": 0.0 }, "geometry": null },
{ "type": "Feature", "properties": { "NAME": "Stonebridge", "GSS_CODE": "E05000100", "DISTRICT": "Brent", "LAGSSCODE": "E09000005", "HECTARES": 405.063, "NONLD_AREA": 0.0 }, "geometry": null },
{ "type": "Feature", "properties": { "NAME": "Welsh Harp", "GSS_CODE": "E05000103", "DISTRICT": "Brent", "LAGSSCODE": "E09000005", "HECTARES": 231.897, "NONLD_AREA": 0.0 }, "geometry": null },
{ "type": "Feature", "properties": { "NAME": "Barnhill", "GSS_CODE": "E05000086", "DISTRICT": "Brent", "LAGSSCODE": "E09000005", "HECTARES": 297.908, "NONLD_AREA": 0.0 }, "geometry": null },
{ "type": "Feature", "properties": { "NAME": "Fryent", "GSS_CODE": "E05000090", "DISTRICT": "Brent", "LAGSSCODE": "E09000005", "HECTARES": 265.938, "NONLD_AREA": 0.0 }, "geometry": null },
{ "type": "Feature", "properties": { "NAME": "Sudbury", "GSS_CODE": "E05000101", "DISTRICT": "Brent", "LAGSSCODE": "E09000005", "HECTARES": 212.48, "NONLD_AREA": 0.0 }, "geometry": null },
{ "type": "Feature", "properties": { "NAME": "Alperton", "GSS_CODE": "E05000085", "DISTRICT": "Brent", "LAGSSCODE": "E09000005", "HECTARES": 205.853, "NONLD_AREA": 0.0 }, "geometry": null },
{ "type": "Feature", "properties": { "NAME": "Kensal Green", "GSS_CODE": "E05000092", "DISTRICT": "Brent", "LAGSSCODE": "E09000005", "HECTARES": 112.008, "NONLD_AREA": 0.0 }, "geometry": null },
{ "type": "Feature", "properties": { "NAME": "Harlesden", "GSS_CODE": "E05000091", "DISTRICT": "Brent", "LAGSSCODE": "E09000005", "HECTARES": 111.37, "NONLD_AREA": 0.0 }, "geometry": null },
{ "type": "Feature", "properties": { "NAME": "Willesden Green", "GSS_CODE": "E05000105", "DISTRICT": "Brent", "LAGSSCODE": "E09000005", "HECTARES": 154.803, "NONLD_AREA": 0.0 }, "geometry": null },
{ "type": "Feature", "properties": { "NAME": "Queens Park", "GSS_CODE": "E05000098", "DISTRICT": "Brent", "LAGSSCODE": "E09000005", "HECTARES": 148.562, "NONLD_AREA": 0.0 }, "geometry": null },
{ "type": "Feature", "properties": { "NAME": "Brondesbury Park", "GSS_CODE": "E05000087", "DISTRICT": "Brent", "LAGSSCODE": "E09000005", "HECTARES": 172.942, "NONLD_AREA": 0.0 }, "geometry": null },
{ "type": "Feature", "properties": { "NAME": "Kilburn", "GSS_CODE": "E05000094", "DISTRICT": "Brent", "LAGSSCODE": "E09000005", "HECTARES": 94.4, "NONLD_AREA": 0.0 }, "geometry": null },
{ "type": "Feature", "properties": { "NAME": "Tokyngton", "GSS_CODE": "E05000102", "DISTRICT": "Brent", "LAGSSCODE": "E09000005", "HECTARES": 275.917, "NONLD_AREA": 0.0 }, "geometry": null },
{ "type": "Feature", "properties": { "NAME": "Kenton", "GSS_CODE": "E05000093", "DISTRICT": "Brent", "LAGSSCODE": "E09000005", "HECTARES": 224.315, "NONLD_AREA": 0.0 }, "geometry": null },
{ "type": "Feature", "properties": { "NAME": "Dudden Hill", "GSS_CODE": "E05000089", "DISTRICT": "Brent", "LAGSSCODE": "E09000005", "HECTARES": 168.144, "NONLD_AREA": 0.0 }, "geometry": null },
{ "type": "Feature", "properties": { "NAME": "Dollis Hill", "GSS_CODE": "E05000088", "DISTRICT": "Brent", "LAGSSCODE": "E09000005", "HECTARES": 229.956, "NONLD_AREA": 0.0 }, "geometry": null },
{ "type": "Feature", "properties": { "NAME": "Mapesbury", "GSS_CODE": "E05000095", "DISTRICT": "Brent", "LAGSSCODE": "E09000005", "HECTARES": 139.347, "NONLD_AREA": 0.0 }, "geometry": null },
{ "type": "Feature", "properties": { "NAME": "Queensbury", "GSS_CODE": "E05000099", "DISTRICT": "Brent", "LAGSSCODE": "E09000005", "HECTARES": 205.124, "NONLD_AREA": 0.0 }, "geometry": null },
{ "type": "Feature", "properties": { "NAME": "Underhill", "GSS_CODE": "E05000060", "DISTRICT": "Barnet", "LAGSSCODE": "E09000003", "HECTARES": 455.053, "NONLD_AREA": 0.0 }, "geometry": null },
{ "type": "Feature", "properties": { "NAME": "High Barnet", "GSS_CODE": "E05000056", "DISTRICT": "Barnet", "LAGSSCODE": "E09000003", "HECTARES": 830.666, "NONLD_AREA": 0.0 }, "geometry": null },
{ "type": "Feature", "properties": { "NAME": "West Hendon", "GSS_CODE": "E05000062", "DISTRICT": "Barnet", "LAGSSCODE": "E09000003", "HECTARES": 342.865, "NONLD_AREA": 0.0 }, "geometry": null },
{ "type": "Feature", "properties": { "NAME": "Golders Green", "GSS_CODE": "E05000053", "DISTRICT": "Barnet", "LAGSSCODE": "E09000003", "HECTARES": 297.292, "NONLD_AREA": 0.0 }, "geometry": null },
{ "type": "Feature", "properties": { "NAME": "Colindale", "GSS_CODE": "E05000046", "DISTRICT": "Barnet", "LAGSSCODE": "E09000003", "HECTARES": 263.627, "NONLD_AREA": 0.0 }, "geometry": null },
{ "type": "Feature", "properties": { "NAME": "Childs Hill", "GSS_CODE": "E05000045", "DISTRICT": "Barnet", "LAGSSCODE": "E09000003", "HECTARES": 309.301, "NONLD_AREA": 0.0 }, "geometry": null },
{ "type": "Feature", "properties": { "NAME": "Garden Suburb", "GSS_CODE": "E05000052", "DISTRICT": "Barnet", "LAGSSCODE": "E09000003", "HECTARES": 472.705, "NONLD_AREA": 0.0 }, "geometry": null },
{ "type": "Feature", "properties": { "NAME": "Finchley Church End", "GSS_CODE": "E05000051", "DISTRICT": "Barnet", "LAGSSCODE": "E09000003", "HECTARES": 272.564, "NONLD_AREA": 0.0 }, "geometry": null },
{ "type": "Feature", "properties": { "NAME": "East Finchley", "GSS_CODE": "E05000049", "DISTRICT": "Barnet", "LAGSSCODE": "E09000003", "HECTARES": 250.989, "NONLD_AREA": 0.0 }, "geometry": null },
{ "type": "Feature", "properties": { "NAME": "Edgware", "GSS_CODE": "E05000050", "DISTRICT": "Barnet", "LAGSSCODE": "E09000003", "HECTARES": 555.652, "NONLD_AREA": 0.0 }, "geometry": null },
{ "type": "Feature", "properties": { "NAME": "Mill Hill", "GSS_CODE": "E05000057", "DISTRICT": "Barnet", "LAGSSCODE": "E09000003", "HECTARES": 938.921, "NONLD_AREA": 0.0 }, "geometry": null },
{ "type": "Feature", "properties": { "NAME": "Hale", "GSS_CODE": "E05000054", "DISTRICT": "Barnet", "LAGSSCODE": "E09000003", "HECTARES": 542.315, "NONLD_AREA": 0.0 }, "geometry": null },
{ "type": "Feature", "properties": { "NAME": "Totteridge", "GSS_CODE": "E05000059", "DISTRICT": "Barnet", "LAGSSCODE": "E09000003", "HECTARES": 877.446, "NONLD_AREA": 0.0 }, "geometry": null },
{ "type": "Feature", "properties": { "NAME": "Oakleigh", "GSS_CODE": "E05000058", "DISTRICT": "Barnet", "LAGSSCODE": "E09000003", "HECTARES": 331.861, "NONLD_AREA": 0.0 }, "geometry": null },
{ "type": "Feature", "properties": { "NAME": "Woodhouse", "GSS_CODE": "E05000063", "DISTRICT": "Barnet", "LAGSSCODE": "E09000003", "HECTARES": 262.117, "NONLD_AREA": 0.0 }, "geometry": null },
{ "type": "Feature", "properties": { "NAME": "Coppetts", "GSS_CODE": "E05000047", "DISTRICT": "Barnet", "LAGSSCODE": "E09000003", "HECTARES": 272.058, "NONLD_AREA": 0.0 }, "geometry": null },
{ "type": "Feature", "properties": { "NAME": "Brunswick Park", "GSS_CODE": "E05000043", "DISTRICT": "Barnet", "LAGSSCODE": "E09000003", "HECTARES": 317.526, "NONLD_AREA": 0.0 }, "geometry": null },
{ "type": "Feature", "properties": { "NAME": "East Barnet", "GSS_CODE": "E05000048", "DISTRICT": "Barnet", "LAGSSCODE": "E09000003", "HECTARES": 374.943, "NONLD_AREA": 0.0 }, "geometry": null },
{ "type": "Feature", "properties": { "NAME": "Burnt Oak", "GSS_CODE": "E05000044", "DISTRICT": "Barnet", "LAGSSCODE": "E09000003", "HECTARES": 206.719, "NONLD_AREA": 0.0 }, "geometry": null },
{ "type": "Feature", "properties": { "NAME": "Hendon", "GSS_CODE": "E05000055", "DISTRICT": "Barnet", "LAGSSCODE": "E09000003", "HECTARES": 283.871, "NONLD_AREA": 0.0 }, "geometry": null },
{ "type": "Feature", "properties": { "NAME": "West Finchley", "GSS_CODE": "E05000061", "DISTRICT": "Barnet", "LAGSSCODE": "E09000003", "HECTARES": 216.344, "NONLD_AREA": 0.0 }, "geometry": null },
{ "type": "Feature", "properties": { "NAME": "Streatham South", "GSS_CODE": "E05000431", "DISTRICT": "Lambeth", "LAGSSCODE": "E09000022", "HECTARES": 169.809, "NONLD_AREA": 0.0 }, "geometry": null },
{ "type": "Feature", "properties": { "NAME": "St. Leonard's", "GSS_CODE": "E05000428", "DISTRICT": "Lambeth", "LAGSSCODE": "E09000022", "HECTARES": 144.773, "NONLD_AREA": 0.0 }, "geometry": null },
{ "type": "Feature", "properties": { "NAME": "Streatham Wells", "GSS_CODE": "E05000432", "DISTRICT": "Lambeth", "LAGSSCODE": "E09000022", "HECTARES": 144.978, "NONLD_AREA": 0.0 }, "geometry": null },
{ "type": "Feature", "properties": { "NAME": "Knight's Hill", "GSS_CODE": "E05000424", "DISTRICT": "Lambeth", "LAGSSCODE": "E09000022", "HECTARES": 147.166, "NONLD_AREA": 0.0 }, "geometry": null },
{ "type": "Feature", "properties": { "NAME": "Thornton", "GSS_CODE": "E05000433", "DISTRICT": "Lambeth", "LAGSSCODE": "E09000022", "HECTARES": 107.759, "NONLD_AREA": 0.0 }, "geometry": null },
{ "type": "Feature", "properties": { "NAME": "Streatham Hill", "GSS_CODE": "E05000430", "DISTRICT": "Lambeth", "LAGSSCODE": "E09000022", "HECTARES": 127.063, "NONLD_AREA": 0.0 }, "geometry": null },
{ "type": "Feature", "properties": { "NAME": "Clapham Common", "GSS_CODE": "E05000418", "DISTRICT": "Lambeth", "LAGSSCODE": "E09000022", "HECTARES": 133.854, "NONLD_AREA": 0.0 }, "geometry": null },
{ "type": "Feature", "properties": { "NAME": "Brixton Hill", "GSS_CODE": "E05000417", "DISTRICT": "Lambeth", "LAGSSCODE": "E09000022", "HECTARES": 113.124, "NONLD_AREA": 0.0 }, "geometry": null },
{ "type": "Feature", "properties": { "NAME": "Tulse Hill", "GSS_CODE": "E05000435", "DISTRICT": "Lambeth", "LAGSSCODE": "E09000022", "HECTARES": 103.195, "NONLD_AREA": 0.0 }, "geometry": null },
{ "type": "Feature", "properties": { "NAME": "Coldharbour", "GSS_CODE": "E05000420", "DISTRICT": "Lambeth", "LAGSSCODE": "E09000022", "HECTARES": 120.806, "NONLD_AREA": 0.0 }, "geometry": null },
{ "type": "Feature", "properties": { "NAME": "Ferndale", "GSS_CODE": "E05000421", "DISTRICT": "Lambeth", "LAGSSCODE": "E09000022", "HECTARES": 85.073, "NONLD_AREA": 0.0 }, "geometry": null },
{ "type": "Feature", "properties": { "NAME": "Larkhall", "GSS_CODE": "E05000425", "DISTRICT": "Lambeth", "LAGSSCODE": "E09000022", "HECTARES": 106.124, "NONLD_AREA": 0.0 }, "geometry": null },
{ "type": "Feature", "properties": { "NAME": "Oval", "GSS_CODE": "E05000426", "DISTRICT": "Lambeth", "LAGSSCODE": "E09000022", "HECTARES": 127.764, "NONLD_AREA": 3.586 }, "geometry": null },
{ "type": "Feature", "properties": { "NAME": "Vassall", "GSS_CODE": "E05000436", "DISTRICT": "Lambeth", "LAGSSCODE": "E09000022", "HECTARES": 112.973, "NONLD_AREA": 0.0 }, "geometry": null },
{ "type": "Feature", "properties": { "NAME": "Gipsy Hill", "GSS_CODE": "E05000422", "DISTRICT": "Lambeth", "LAGSSCODE": "E09000022", "HECTARES": 157.067, "NONLD_AREA": 0.0 }, "geometry": null },
{ "type": "Feature", "properties": { "NAME": "Thurlow Park", "GSS_CODE": "E05000434", "DISTRICT": "Lambeth", "LAGSSCODE": "E09000022", "HECTARES": 151.482, "NONLD_AREA": 0.0 }, "geometry": null },
{ "type": "Feature", "properties": { "NAME": "Herne Hill", "GSS_CODE": "E05000423", "DISTRICT": "Lambeth", "LAGSSCODE": "E09000022", "HECTARES": 203.038, "NONLD_AREA": 0.0 }, "geometry": null },
{ "type": "Feature", "properties": { "NAME": "Bishop's", "GSS_CODE": "E05000416", "DISTRICT": "Lambeth", "LAGSSCODE": "E09000022", "HECTARES": 153.959, "NONLD_AREA": 30.258 }, "geometry": null },
{ "type": "Feature", "properties": { "NAME": "Clapham Town", "GSS_CODE": "E05000419", "DISTRICT": "Lambeth", "LAGSSCODE": "E09000022", "HECTARES": 111.893, "NONLD_AREA": 0.0 }, "geometry": null },
{ "type": "Feature", "properties": { "NAME": "Stockwell", "GSS_CODE": "E05000429", "DISTRICT": "Lambeth", "LAGSSCODE": "E09000022", "HECTARES": 86.678, "NONLD_AREA": 0.0 }, "geometry": null },
{ "type": "Feature", "properties": { "NAME": "Prince's", "GSS_CODE": "E05000427", "DISTRICT": "Lambeth", "LAGSSCODE": "E09000022", "HECTARES": 116.363, "NONLD_AREA": 10.083 }, "geometry": null },
{ "type": "Feature", "properties": { "NAME": "Dulwich Wood", "GSS_CODE": "E05011101", "DISTRICT": "Southwark", "LAGSSCODE": "E09000028", "HECTARES": 301.593, "NONLD_AREA": 0.0 }, "geometry": null },
{ "type": "Feature", "properties": { "NAME": "Rotherhithe", "GSS_CODE": "E05011112", "DISTRICT": "Southwark", "LAGSSCODE": "E09000028", "HECTARES": 152.503, "NONLD_AREA": 11.312 }, "geometry": null },
{ "type": "Feature", "properties": { "NAME": "Dulwich Village", "GSS_CODE": "E05011100", "DISTRICT": "Southwark", "LAGSSCODE": "E09000028", "HECTARES": 261.997, "NONLD_AREA": 0.0 }, "geometry": null },
{ "type": "Feature", "properties": { "NAME": "Champion Hill", "GSS_CODE": "E05011097", "DISTRICT": "Southwark", "LAGSSCODE": "E09000028", "HECTARES": 105.054, "NONLD_AREA": 0.0 }, "geometry": null },
{ "type": "Feature", "properties": { "NAME": "Dulwich Hill", "GSS_CODE": "E05011099", "DISTRICT": "Southwark", "LAGSSCODE": "E09000028", "HECTARES": 99.851, "NONLD_AREA": 0.0 }, "geometry": null },
{ "type": "Feature", "properties": { "NAME": "Peckham Rye", "GSS_CODE": "E05011111", "DISTRICT": "Southwark", "LAGSSCODE": "E09000028", "HECTARES": 189.237, "NONLD_AREA": 0.0 }, "geometry": null },
{ "type": "Feature", "properties": { "NAME": "Camberwell Green", "GSS_CODE": "E05011096", "DISTRICT": "Southwark", "LAGSSCODE": "E09000028", "HECTARES": 92.752, "NONLD_AREA": 0.0 }, "geometry": null },
{ "type": "Feature", "properties": { "NAME": "St. Giles", "GSS_CODE": "E05011115", "DISTRICT": "Southwark", "LAGSSCODE": "E09000028", "HECTARES": 112.079, "NONLD_AREA": 0.0 }, "geometry": null },
{ "type": "Feature", "properties": { "NAME": "Rye Lane", "GSS_CODE": "E05011113", "DISTRICT": "Southwark", "LAGSSCODE": "E09000028", "HECTARES": 127.179, "NONLD_AREA": 0.0 }, "geometry": null },
{ "type": "Feature", "properties": { "NAME": "Nunhead & Queen's Road", "GSS_CODE": "E05011108", "DISTRICT": "Southwark", "LAGSSCODE": "E09000028", "HECTARES": 131.721, "NONLD_AREA": 0.0 }, "geometry": null },
{ "type": "Feature", "properties": { "NAME": "Peckham", "GSS_CODE": "E05011110", "DISTRICT": "Southwark", "LAGSSCODE": "E09000028", "HECTARES": 85.524, "NONLD_AREA": 0.0 }, "geometry": null },
{ "type": "Feature", "properties": { "NAME": "Newington", "GSS_CODE": "E05011105", "DISTRICT": "Southwark", "LAGSSCODE": "E09000028", "HECTARES": 77.889, "NONLD_AREA": 0.0 }, "geometry": null },
{ "type": "Feature", "properties": { "NAME": "Faraday", "GSS_CODE": "E05011102", "DISTRICT": "Southwark", "LAGSSCODE": "E09000028", "HECTARES": 110.141, "NONLD_AREA": 0.0 }, "geometry": null },
{ "type": "Feature", "properties": { "NAME": "Old Kent Road", "GSS_CODE": "E05011109", "DISTRICT": "Southwark", "LAGSSCODE": "E09000028", "HECTARES": 165.918, "NONLD_AREA": 0.0 }, "geometry": null },
{ "type": "Feature", "properties": { "NAME": "South Bermondsey", "GSS_CODE": "E05011116", "DISTRICT": "Southwark", "LAGSSCODE": "E09000028", "HECTARES": 120.093, "NONLD_AREA": 0.0 }, "geometry": null },
{ "type": "Feature", "properties": { "NAME": "Borough & Bankside", "GSS_CODE": "E05011095", "DISTRICT": "Southwark", "LAGSSCODE": "E09000028", "HECTARES": 119.577, "NONLD_AREA": 18.584 }, "geometry": null },
{ "type": "Feature", "properties": { "NAME": "London Bridge & West Bermondsey", "GSS_CODE": "E05011104", "DISTRICT": "Southwark", "LAGSSCODE": "E09000028", "HECTARES": 127.087, "NONLD_AREA": 11.103 }, "geometry": null },
{ "type": "Feature", "properties": { "NAME": "North Bermondsey", "GSS_CODE": "E05011106", "DISTRICT": "Southwark", "LAGSSCODE": "E09000028", "HECTARES": 112.599, "NONLD_AREA": 19.127 }, "geometry": null },
{ "type": "Feature", "properties": { "NAME": "Surrey Docks", "GSS_CODE": "E05011117", "DISTRICT": "Southwark", "LAGSSCODE": "E09000028", "HECTARES": 171.029, "NONLD_AREA": 45.013 }, "geometry": null },
{ "type": "Feature", "properties": { "NAME": "Goose Green", "GSS_CODE": "E05011103", "DISTRICT": "Southwark", "LAGSSCODE": "E09000028", "HECTARES": 115.552, "NONLD_AREA": 0.0 }, "geometry": null },
{ "type": "Feature", "properties": { "NAME": "St. George's", "GSS_CODE": "E05011114", "DISTRICT": "Southwark", "LAGSSCODE": "E09000028", "HECTARES": 57.296, "NONLD_AREA": 0.0 }, "geometry": null },
{ "type": "Feature", "properties": { "NAME": "North Walworth", "GSS_CODE": "E05011107", "DISTRICT": "Southwark", "LAGSSCODE": "E09000028", "HECTARES": 79.61, "NONLD_AREA": 0.0 }, "geometry": null },
{ "type": "Feature", "properties": { "NAME": "Chaucer", "GSS_CODE": "E05011098", "DISTRICT": "Southwark", "LAGSSCODE": "E09000028", "HECTARES": 75.06, "NONLD_AREA": 0.0 }, "geometry": null },
{ "type": "Feature", "properties": { "NAME": "Bellingham", "GSS_CODE": "E05000437", "DISTRICT": "Lewisham", "LAGSSCODE": "E09000023", "HECTARES": 308.471, "NONLD_AREA": 0.0 }, "geometry": null },
{ "type": "Feature", "properties": { "NAME": "Telegraph Hill", "GSS_CODE": "E05000453", "DISTRICT": "Lewisham", "LAGSSCODE": "E09000023", "HECTARES": 154.631, "NONLD_AREA": 0.0 }, "geometry": null },
{ "type": "Feature", "properties": { "NAME": "Downham", "GSS_CODE": "E05000442", "DISTRICT": "Lewisham", "LAGSSCODE": "E09000023", "HECTARES": 238.178, "NONLD_AREA": 0.0 }, "geometry": null },
{ "type": "Feature", "properties": { "NAME": "Whitefoot", "GSS_CODE": "E05000454", "DISTRICT": "Lewisham", "LAGSSCODE": "E09000023", "HECTARES": 223.004, "NONLD_AREA": 0.0 }, "geometry": null },
{ "type": "Feature", "properties": { "NAME": "Blackheath", "GSS_CODE": "E05000438", "DISTRICT": "Lewisham", "LAGSSCODE": "E09000023", "HECTARES": 231.823, "NONLD_AREA": 0.0 }, "geometry": null },
{ "type": "Feature", "properties": { "NAME": "Sydenham", "GSS_CODE": "E05000452", "DISTRICT": "Lewisham", "LAGSSCODE": "E09000023", "HECTARES": 174.372, "NONLD_AREA": 0.0 }, "geometry": null },
{ "type": "Feature", "properties": { "NAME": "Forest Hill", "GSS_CODE": "E05000444", "DISTRICT": "Lewisham", "LAGSSCODE": "E09000023", "HECTARES": 182.785, "NONLD_AREA": 0.0 }, "geometry": null },
{ "type": "Feature", "properties": { "NAME": "Perry Vale", "GSS_CODE": "E05000450", "DISTRICT": "Lewisham", "LAGSSCODE": "E09000023", "HECTARES": 168.45, "NONLD_AREA": 0.0 }, "geometry": null },
{ "type": "Feature", "properties": { "NAME": "Rushey Green", "GSS_CODE": "E05000451", "DISTRICT": "Lewisham", "LAGSSCODE": "E09000023", "HECTARES": 178.524, "NONLD_AREA": 0.0 }, "geometry": null },
{ "type": "Feature", "properties": { "NAME": "Catford South", "GSS_CODE": "E05000440", "DISTRICT": "Lewisham", "LAGSSCODE": "E09000023", "HECTARES": 186.655, "NONLD_AREA": 0.0 }, "geometry": null },
{ "type": "Feature", "properties": { "NAME": "Crofton Park", "GSS_CODE": "E05000441", "DISTRICT": "Lewisham", "LAGSSCODE": "E09000023", "HECTARES": 171.962, "NONLD_AREA": 0.0 }, "geometry": null },
{ "type": "Feature", "properties": { "NAME": "Ladywell", "GSS_CODE": "E05000446", "DISTRICT": "Lewisham", "LAGSSCODE": "E09000023", "HECTARES": 160.598, "NONLD_AREA": 0.0 }, "geometry": null },
{ "type": "Feature", "properties": { "NAME": "Lewisham Central", "GSS_CODE": "E05000448", "DISTRICT": "Lewisham", "LAGSSCODE": "E09000023", "HECTARES": 206.203, "NONLD_AREA": 0.0 }, "geometry": null },
{ "type": "Feature", "properties": { "NAME": "Brockley", "GSS_CODE": "E05000439", "DISTRICT": "Lewisham", "LAGSSCODE": "E09000023", "HECTARES": 168.183, "NONLD_AREA": 0.0 }, "geometry": null },
{ "type": "Feature", "properties": { "NAME": "New Cross", "GSS_CODE": "E05000449", "DISTRICT": "Lewisham", "LAGSSCODE": "E09000023", "HECTARES": 181.114, "NONLD_AREA": 1.407 }, "geometry": null },
{ "type": "Feature", "properties": { "NAME": "Grove Park", "GSS_CODE": "E05000445", "DISTRICT": "Lewisham", "LAGSSCODE": "E09000023", "HECTARES": 239.291, "NONLD_AREA": 0.0 }, "geometry": null },
{ "type": "Feature", "properties": { "NAME": "Lee Green", "GSS_CODE": "E05000447", "DISTRICT": "Lewisham", "LAGSSCODE": "E09000023", "HECTARES": 179.842, "NONLD_AREA": 0.0 }, "geometry": null },
{ "type": "Feature", "properties": { "NAME": "Evelyn", "GSS_CODE": "E05000443", "DISTRICT": "Lewisham", "LAGSSCODE": "E09000023", "HECTARES": 177.62, "NONLD_AREA": 15.388 }, "geometry": null },
{ "type": "Feature", "properties": { "NAME": "Middle Park and Sutcliffe", "GSS_CODE": "E05000224", "DISTRICT": "Greenwich", "LAGSSCODE": "E09000011", "HECTARES": 329.143, "NONLD_AREA": 0.0 }, "geometry": null },
{ "type": "Feature", "properties": { "NAME": "Coldharbour and New Eltham", "GSS_CODE": "E05000217", "DISTRICT": "Greenwich", "LAGSSCODE": "E09000011", "HECTARES": 254.935, "NONLD_AREA": 0.0 }, "geometry": null },
{ "type": "Feature", "properties": { "NAME": "Eltham South", "GSS_CODE": "E05000219", "DISTRICT": "Greenwich", "LAGSSCODE": "E09000011", "HECTARES": 462.641, "NONLD_AREA": 0.0 }, "geometry": null },
{ "type": "Feature", "properties": { "NAME": "Shooters Hill", "GSS_CODE": "E05000227", "DISTRICT": "Greenwich", "LAGSSCODE": "E09000011", "HECTARES": 377.072, "NONLD_AREA": 0.0 }, "geometry": null },
{ "type": "Feature", "properties": { "NAME": "Peninsula", "GSS_CODE": "E05000225", "DISTRICT": "Greenwich", "LAGSSCODE": "E09000011", "HECTARES": 449.194, "NONLD_AREA": 107.254 }, "geometry": null },
{ "type": "Feature", "properties": { "NAME": "Woolwich Riverside", "GSS_CODE": "E05000230", "DISTRICT": "Greenwich", "LAGSSCODE": "E09000011", "HECTARES": 326.109, "NONLD_AREA": 72.317 }, "geometry": null },
{ "type": "Feature", "properties": { "NAME": "Greenwich West", "GSS_CODE": "E05000222", "DISTRICT": "Greenwich", "LAGSSCODE": "E09000011", "HECTARES": 279.234, "NONLD_AREA": 26.431 }, "geometry": null },
{ "type": "Feature", "properties": { "NAME": "Eltham West", "GSS_CODE": "E05000220", "DISTRICT": "Greenwich", "LAGSSCODE": "E09000011", "HECTARES": 242.564, "NONLD_AREA": 0.0 }, "geometry": null },
{ "type": "Feature", "properties": { "NAME": "Blackheath Westcombe", "GSS_CODE": "E05000215", "DISTRICT": "Greenwich", "LAGSSCODE": "E09000011", "HECTARES": 213.815, "NONLD_AREA": 0.0 }, "geometry": null },
{ "type": "Feature", "properties": { "NAME": "Kidbrooke with Hornfair", "GSS_CODE": "E05000223", "DISTRICT": "Greenwich", "LAGSSCODE": "E09000011", "HECTARES": 237.454, "NONLD_AREA": 0.0 }, "geometry": null },
{ "type": "Feature", "properties": { "NAME": "Eltham North", "GSS_CODE": "E05000218", "DISTRICT": "Greenwich", "LAGSSCODE": "E09000011", "HECTARES": 255.512, "NONLD_AREA": 0.0 }, "geometry": null },
{ "type": "Feature", "properties": { "NAME": "Charlton", "GSS_CODE": "E05000216", "DISTRICT": "Greenwich", "LAGSSCODE": "E09000011", "HECTARES": 203.12, "NONLD_AREA": 0.0 }, "geometry": null },
{ "type": "Feature", "properties": { "NAME": "Woolwich Common", "GSS_CODE": "E05000229", "DISTRICT": "Greenwich", "LAGSSCODE": "E09000011", "HECTARES": 262.035, "NONLD_AREA": 0.0 }, "geometry": null },
{ "type": "Feature", "properties": { "NAME": "Plumstead", "GSS_CODE": "E05000226", "DISTRICT": "Greenwich", "LAGSSCODE": "E09000011", "HECTARES": 234.189, "NONLD_AREA": 0.0 }, "geometry": null },
{ "type": "Feature", "properties": { "NAME": "Glyndon", "GSS_CODE": "E05000221", "DISTRICT": "Greenwich", "LAGSSCODE": "E09000011", "HECTARES": 170.196, "NONLD_AREA": 15.42 }, "geometry": null },
{ "type": "Feature", "properties": { "NAME": "Thamesmead Moorings", "GSS_CODE": "E05000228", "DISTRICT": "Greenwich", "LAGSSCODE": "E09000011", "HECTARES": 481.256, "NONLD_AREA": 89.362 }, "geometry": null },
{ "type": "Feature", "properties": { "NAME": "Abbey Wood", "GSS_CODE": "E05000214", "DISTRICT": "Greenwich", "LAGSSCODE": "E09000011", "HECTARES": 265.721, "NONLD_AREA": 0.0 }, "geometry": null },
{ "type": "Feature", "properties": { "NAME": "Longlands", "GSS_CODE": "E05011227", "DISTRICT": "Bexley", "LAGSSCODE": "E09000004", "HECTARES": 188.689, "NONLD_AREA": 0.0 }, "geometry": null },
{ "type": "Feature", "properties": { "NAME": "Blackfen & Lamorbey", "GSS_CODE": "E05011220", "DISTRICT": "Bexley", "LAGSSCODE": "E09000004", "HECTARES": 290.792, "NONLD_AREA": 0.0 }, "geometry": null },
{ "type": "Feature", "properties": { "NAME": "Sidcup", "GSS_CODE": "E05011230", "DISTRICT": "Bexley", "LAGSSCODE": "E09000004", "HECTARES": 398.964, "NONLD_AREA": 0.0 }, "geometry": null },
{ "type": "Feature", "properties": { "NAME": "St. Mary's & St. James", "GSS_CODE": "E05011229", "DISTRICT": "Bexley", "LAGSSCODE": "E09000004", "HECTARES": 874.656, "NONLD_AREA": 0.0 }, "geometry": null },
{ "type": "Feature", "properties": { "NAME": "Falconwood & Welling", "GSS_CODE": "E05011226", "DISTRICT": "Bexley", "LAGSSCODE": "E09000004", "HECTARES": 326.055, "NONLD_AREA": 0.0 }, "geometry": null },
{ "type": "Feature", "properties": { "NAME": "East Wickham", "GSS_CODE": "E05011224", "DISTRICT": "Bexley", "LAGSSCODE": "E09000004", "HECTARES": 281.719, "NONLD_AREA": 0.0 }, "geometry": null },
{ "type": "Feature", "properties": { "NAME": "Crook Log", "GSS_CODE": "E05011223", "DISTRICT": "Bexley", "LAGSSCODE": "E09000004", "HECTARES": 267.716, "NONLD_AREA": 0.0 }, "geometry": null },
{ "type": "Feature", "properties": { "NAME": "Bexleyheath", "GSS_CODE": "E05011219", "DISTRICT": "Bexley", "LAGSSCODE": "E09000004", "HECTARES": 362.546, "NONLD_AREA": 0.0 }, "geometry": null },
{ "type": "Feature", "properties": { "NAME": "Northumberland Heath", "GSS_CODE": "E05011228", "DISTRICT": "Bexley", "LAGSSCODE": "E09000004", "HECTARES": 171.374, "NONLD_AREA": 0.0 }, "geometry": null },
{ "type": "Feature", "properties": { "NAME": "Crayford", "GSS_CODE": "E05011222", "DISTRICT": "Bexley", "LAGSSCODE": "E09000004", "HECTARES": 511.336, "NONLD_AREA": 0.973 }, "geometry": null },
{ "type": "Feature", "properties": { "NAME": "Slade Green & Northend", "GSS_CODE": "E05011231", "DISTRICT": "Bexley", "LAGSSCODE": "E09000004", "HECTARES": 554.256, "NONLD_AREA": 121.613 }, "geometry": null },
{ "type": "Feature", "properties": { "NAME": "Belvedere", "GSS_CODE": "E05011218", "DISTRICT": "Bexley", "LAGSSCODE": "E09000004", "HECTARES": 575.698, "NONLD_AREA": 81.369 }, "geometry": null },
{ "type": "Feature", "properties": { "NAME": "Thamesmead East", "GSS_CODE": "E05011232", "DISTRICT": "Bexley", "LAGSSCODE": "E09000004", "HECTARES": 514.392, "NONLD_AREA": 85.721 }, "geometry": null },
{ "type": "Feature", "properties": { "NAME": "Blendon & Penhill", "GSS_CODE": "E05011221", "DISTRICT": "Bexley", "LAGSSCODE": "E09000004", "HECTARES": 337.376, "NONLD_AREA": 0.0 }, "geometry": null },
{ "type": "Feature", "properties": { "NAME": "West Heath", "GSS_CODE": "E05011233", "DISTRICT": "Bexley", "LAGSSCODE": "E09000004", "HECTARES": 237.499, "NONLD_AREA": 0.0 }, "geometry": null },
{ "type": "Feature", "properties": { "NAME": "Barnehurst", "GSS_CODE": "E05011217", "DISTRICT": "Bexley", "LAGSSCODE": "E09000004", "HECTARES": 213.007, "NONLD_AREA": 0.0 }, "geometry": null },
{ "type": "Feature", "properties": { "NAME": "Erith", "GSS_CODE": "E05011225", "DISTRICT": "Bexley", "LAGSSCODE": "E09000004", "HECTARES": 322.572, "NONLD_AREA": 81.34 }, "geometry": null },
{ "type": "Feature", "properties": { "NAME": "Chase", "GSS_CODE": "E05000195", "DISTRICT": "Enfield", "LAGSSCODE": "E09000010", "HECTARES": 1693.541, "NONLD_AREA": 0.0 }, "geometry": null },
{ "type": "Feature", "properties": { "NAME": "Winchmore Hill", "GSS_CODE": "E05000213", "DISTRICT": "Enfield", "LAGSSCODE": "E09000010", "HECTARES": 276.07, "NONLD_AREA": 0.0 }, "geometry": null },
{ "type": "Feature", "properties": { "NAME": "Cockfosters", "GSS_CODE": "E05000196", "DISTRICT": "Enfield", "LAGSSCODE": "E09000010", "HECTARES": 1041.279, "NONLD_AREA": 0.0 }, "geometry": null },
{ "type": "Feature", "properties": { "NAME": "Highlands", "GSS_CODE": "E05000202", "DISTRICT": "Enfield", "LAGSSCODE": "E09000010", "HECTARES": 508.803, "NONLD_AREA": 0.0 }, "geometry": null },
{ "type": "Feature", "properties": { "NAME": "Upper Edmonton", "GSS_CODE": "E05000212", "DISTRICT": "Enfield", "LAGSSCODE": "E09000010", "HECTARES": 264.24, "NONLD_AREA": 0.0 }, "geometry": null },
{ "type": "Feature", "properties": { "NAME": "Palmers Green", "GSS_CODE": "E05000205", "DISTRICT": "Enfield", "LAGSSCODE": "E09000010", "HECTARES": 194.212, "NONLD_AREA": 0.0 }, "geometry": null },
{ "type": "Feature", "properties": { "NAME": "Edmonton Green", "GSS_CODE": "E05000197", "DISTRICT": "Enfield", "LAGSSCODE": "E09000010", "HECTARES": 312.642, "NONLD_AREA": 0.0 }, "geometry": null },
{ "type": "Feature", "properties": { "NAME": "Lower Edmonton", "GSS_CODE": "E05000204", "DISTRICT": "Enfield", "LAGSSCODE": "E09000010", "HECTARES": 218.248, "NONLD_AREA": 0.0 }, "geometry": null },
{ "type": "Feature", "properties": { "NAME": "Grange", "GSS_CODE": "E05000200", "DISTRICT": "Enfield", "LAGSSCODE": "E09000010", "HECTARES": 328.516, "NONLD_AREA": 0.0 }, "geometry": null },
{ "type": "Feature", "properties": { "NAME": "Jubilee", "GSS_CODE": "E05000203", "DISTRICT": "Enfield", "LAGSSCODE": "E09000010", "HECTARES": 392.833, "NONLD_AREA": 0.0 }, "geometry": null },
{ "type": "Feature", "properties": { "NAME": "Ponders End", "GSS_CODE": "E05000206", "DISTRICT": "Enfield", "LAGSSCODE": "E09000010", "HECTARES": 354.296, "NONLD_AREA": 0.0 }, "geometry": null },
{ "type": "Feature", "properties": { "NAME": "Enfield Highway", "GSS_CODE": "E05000198", "DISTRICT": "Enfield", "LAGSSCODE": "E09000010", "HECTARES": 463.653, "NONLD_AREA": 0.0 }, "geometry": null },
{ "type": "Feature", "properties": { "NAME": "Bowes", "GSS_CODE": "E05000193", "DISTRICT": "Enfield", "LAGSSCODE": "E09000010", "HECTARES": 148.337, "NONLD_AREA": 0.0 }, "geometry": null },
{ "type": "Feature", "properties": { "NAME": "Southgate Green", "GSS_CODE": "E05000209", "DISTRICT": "Enfield", "LAGSSCODE": "E09000010", "HECTARES": 261.351, "NONLD_AREA": 0.0 }, "geometry": null },
{ "type": "Feature", "properties": { "NAME": "Southgate", "GSS_CODE": "E05000208", "DISTRICT": "Enfield", "LAGSSCODE": "E09000010", "HECTARES": 268.727, "NONLD_AREA": 0.0 }, "geometry": null },
{ "type": "Feature", "properties": { "NAME": "Haselbury", "GSS_CODE": "E05000201", "DISTRICT": "Enfield", "LAGSSCODE": "E09000010", "HECTARES": 179.602, "NONLD_AREA": 0.0 }, "geometry": null },
{ "type": "Feature", "properties": { "NAME": "Bush Hill Park", "GSS_CODE": "E05000194", "DISTRICT": "Enfield", "LAGSSCODE": "E09000010", "HECTARES": 252.449, "NONLD_AREA": 0.0 }, "geometry": null },
{ "type": "Feature", "properties": { "NAME": "Town", "GSS_CODE": "E05000210", "DISTRICT": "Enfield", "LAGSSCODE": "E09000010", "HECTARES": 223.14, "NONLD_AREA": 0.0 }, "geometry": null },
{ "type": "Feature", "properties": { "NAME": "Southbury", "GSS_CODE": "E05000207", "DISTRICT": "Enfield", "LAGSSCODE": "E09000010", "HECTARES": 286.704, "NONLD_AREA": 0.0 }, "geometry": null },
{ "type": "Feature", "properties": { "NAME": "Turkey Street", "GSS_CODE": "E05000211", "DISTRICT": "Enfield", "LAGSSCODE": "E09000010", "HECTARES": 226.15, "NONLD_AREA": 0.0 }, "geometry": null },
{ "type": "Feature", "properties": { "NAME": "Enfield Lock", "GSS_CODE": "E05000199", "DISTRICT": "Enfield", "LAGSSCODE": "E09000010", "HECTARES": 325.231, "NONLD_AREA": 0.0 }, "geometry": null },
{ "type": "Feature", "properties": { "NAME": "Leyton", "GSS_CODE": "E05000604", "DISTRICT": "Waltham Forest", "LAGSSCODE": "E09000031", "HECTARES": 203.218, "NONLD_AREA": 0.0 }, "geometry": null },
{ "type": "Feature", "properties": { "NAME": "High Street", "GSS_CODE": "E05000599", "DISTRICT": "Waltham Forest", "LAGSSCODE": "E09000031", "HECTARES": 305.893, "NONLD_AREA": 0.0 }, "geometry": null },
{ "type": "Feature", "properties": { "NAME": "Higham Hill", "GSS_CODE": "E05000600", "DISTRICT": "Waltham Forest", "LAGSSCODE": "E09000031", "HECTARES": 322.124, "NONLD_AREA": 0.0 }, "geometry": null },
{ "type": "Feature", "properties": { "NAME": "Valley", "GSS_CODE": "E05000607", "DISTRICT": "Waltham Forest", "LAGSSCODE": "E09000031", "HECTARES": 198.482, "NONLD_AREA": 0.0 }, "geometry": null },
{ "type": "Feature", "properties": { "NAME": "Chingford Green", "GSS_CODE": "E05000593", "DISTRICT": "Waltham Forest", "LAGSSCODE": "E09000031", "HECTARES": 372.664, "NONLD_AREA": 0.0 }, "geometry": null },
{ "type": "Feature", "properties": { "NAME": "Cathall", "GSS_CODE": "E05000591", "DISTRICT": "Waltham Forest", "LAGSSCODE": "E09000031", "HECTARES": 105.712, "NONLD_AREA": 0.0 }, "geometry": null },
{ "type": "Feature", "properties": { "NAME": "Lea Bridge", "GSS_CODE": "E05000603", "DISTRICT": "Waltham Forest", "LAGSSCODE": "E09000031", "HECTARES": 264.686, "NONLD_AREA": 0.0 }, "geometry": null },
{ "type": "Feature", "properties": { "NAME": "Markhouse", "GSS_CODE": "E05000606", "DISTRICT": "Waltham Forest", "LAGSSCODE": "E09000031", "HECTARES": 145.704, "NONLD_AREA": 0.0 }, "geometry": null },
{ "type": "Feature", "properties": { "NAME": "Grove Green", "GSS_CODE": "E05000596", "DISTRICT": "Waltham Forest", "LAGSSCODE": "E09000031", "HECTARES": 89.582, "NONLD_AREA": 0.0 }, "geometry": null },
{ "type": "Feature", "properties": { "NAME": "Forest", "GSS_CODE": "E05000595", "DISTRICT": "Waltham Forest", "LAGSSCODE": "E09000031", "HECTARES": 198.605, "NONLD_AREA": 0.0 }, "geometry": null },
{ "type": "Feature", "properties": { "NAME": "William Morris", "GSS_CODE": "E05000608", "DISTRICT": "Waltham Forest", "LAGSSCODE": "E09000031", "HECTARES": 99.919, "NONLD_AREA": 0.0 }, "geometry": null },
{ "type": "Feature", "properties": { "NAME": "Hoe Street", "GSS_CODE": "E05000601", "DISTRICT": "Waltham Forest", "LAGSSCODE": "E09000031", "HECTARES": 110.006, "NONLD_AREA": 0.0 }, "geometry": null },
{ "type": "Feature", "properties": { "NAME": "Wood Street", "GSS_CODE": "E05000609", "DISTRICT": "Waltham Forest", "LAGSSCODE": "E09000031", "HECTARES": 185.011, "NONLD_AREA": 0.0 }, "geometry": null },
{ "type": "Feature", "properties": { "NAME": "Chapel End", "GSS_CODE": "E05000592", "DISTRICT": "Waltham Forest", "LAGSSCODE": "E09000031", "HECTARES": 185.015, "NONLD_AREA": 0.0 }, "geometry": null },
{ "type": "Feature", "properties": { "NAME": "Hale End and Highams Park", "GSS_CODE": "E05000597", "DISTRICT": "Waltham Forest", "LAGSSCODE": "E09000031", "HECTARES": 234.689, "NONLD_AREA": 0.0 }, "geometry": null },
{ "type": "Feature", "properties": { "NAME": "Cann Hall", "GSS_CODE": "E05000590", "DISTRICT": "Waltham Forest", "LAGSSCODE": "E09000031", "HECTARES": 85.788, "NONLD_AREA": 0.0 }, "geometry": null },
{ "type": "Feature", "properties": { "NAME": "Larkswood", "GSS_CODE": "E05000602", "DISTRICT": "Waltham Forest", "LAGSSCODE": "E09000031", "HECTARES": 206.57, "NONLD_AREA": 0.0 }, "geometry": null },
{ "type": "Feature", "properties": { "NAME": "Endlebury", "GSS_CODE": "E05000594", "DISTRICT": "Waltham Forest", "LAGSSCODE": "E09000031", "HECTARES": 194.912, "NONLD_AREA": 0.0 }, "geometry": null },
{ "type": "Feature", "properties": { "NAME": "Hatch Lane", "GSS_CODE": "E05000598", "DISTRICT": "Waltham Forest", "LAGSSCODE": "E09000031", "HECTARES": 241.621, "NONLD_AREA": 0.0 }, "geometry": null },
{ "type": "Feature", "properties": { "NAME": "Leytonstone", "GSS_CODE": "E05000605", "DISTRICT": "Waltham Forest", "LAGSSCODE": "E09000031", "HECTARES": 130.591, "NONLD_AREA": 0.0 }, "geometry": null },
{ "type": "Feature", "properties": { "NAME": "Wanstead Park", "GSS_CODE": "E05011254", "DISTRICT": "Redbridge", "LAGSSCODE": "E09000026", "HECTARES": 474.224, "NONLD_AREA": 0.0 }, "geometry": null },
{ "type": "Feature", "properties": { "NAME": "Fullwell", "GSS_CODE": "E05011243", "DISTRICT": "Redbridge", "LAGSSCODE": "E09000026", "HECTARES": 276.981, "NONLD_AREA": 0.0 }, "geometry": null },
{ "type": "Feature", "properties": { "NAME": "Fairlop", "GSS_CODE": "E05011242", "DISTRICT": "Redbridge", "LAGSSCODE": "E09000026", "HECTARES": 287.069, "NONLD_AREA": 0.0 }, "geometry": null },
{ "type": "Feature", "properties": { "NAME": "Goodmayes", "GSS_CODE": "E05011244", "DISTRICT": "Redbridge", "LAGSSCODE": "E09000026", "HECTARES": 181.499, "NONLD_AREA": 0.0 }, "geometry": null },
{ "type": "Feature", "properties": { "NAME": "Aldborough", "GSS_CODE": "E05011234", "DISTRICT": "Redbridge", "LAGSSCODE": "E09000026", "HECTARES": 849.914, "NONLD_AREA": 0.0 }, "geometry": null },
{ "type": "Feature", "properties": { "NAME": "Bridge", "GSS_CODE": "E05011236", "DISTRICT": "Redbridge", "LAGSSCODE": "E09000026", "HECTARES": 345.207, "NONLD_AREA": 0.0 }, "geometry": null },
{ "type": "Feature", "properties": { "NAME": "Hainault", "GSS_CODE": "E05011245", "DISTRICT": "Redbridge", "LAGSSCODE": "E09000026", "HECTARES": 565.28, "NONLD_AREA": 0.0 }, "geometry": null },
{ "type": "Feature", "properties": { "NAME": "Cranbrook", "GSS_CODE": "E05011241", "DISTRICT": "Redbridge", "LAGSSCODE": "E09000026", "HECTARES": 149.09, "NONLD_AREA": 0.0 }, "geometry": null },
{ "type": "Feature", "properties": { "NAME": "Loxford", "GSS_CODE": "E05011247", "DISTRICT": "Redbridge", "LAGSSCODE": "E09000026", "HECTARES": 109.143, "NONLD_AREA": 2.3 }, "geometry": null },
{ "type": "Feature", "properties": { "NAME": "Clementswood", "GSS_CODE": "E05011240", "DISTRICT": "Redbridge", "LAGSSCODE": "E09000026", "HECTARES": 89.95, "NONLD_AREA": 0.0 }, "geometry": null },
{ "type": "Feature", "properties": { "NAME": "Mayfield", "GSS_CODE": "E05011248", "DISTRICT": "Redbridge", "LAGSSCODE": "E09000026", "HECTARES": 186.183, "NONLD_AREA": 0.0 }, "geometry": null },
{ "type": "Feature", "properties": { "NAME": "Valentines", "GSS_CODE": "E05011253", "DISTRICT": "Redbridge", "LAGSSCODE": "E09000026", "HECTARES": 180.126, "NONLD_AREA": 0.0 }, "geometry": null },
{ "type": "Feature", "properties": { "NAME": "Ilford Town", "GSS_CODE": "E05011246", "DISTRICT": "Redbridge", "LAGSSCODE": "E09000026", "HECTARES": 106.244, "NONLD_AREA": 0.0 }, "geometry": null },
{ "type": "Feature", "properties": { "NAME": "Newbury", "GSS_CODE": "E05011250", "DISTRICT": "Redbridge", "LAGSSCODE": "E09000026", "HECTARES": 174.392, "NONLD_AREA": 0.0 }, "geometry": null },
{ "type": "Feature", "properties": { "NAME": "Seven Kings", "GSS_CODE": "E05011251", "DISTRICT": "Redbridge", "LAGSSCODE": "E09000026", "HECTARES": 181.636, "NONLD_AREA": 0.0 }, "geometry": null },
{ "type": "Feature", "properties": { "NAME": "Wanstead Village", "GSS_CODE": "E05011255", "DISTRICT": "Redbridge", "LAGSSCODE": "E09000026", "HECTARES": 230.213, "NONLD_AREA": 0.0 }, "geometry": null },
{ "type": "Feature", "properties": { "NAME": "South Woodford", "GSS_CODE": "E05011252", "DISTRICT": "Redbridge", "LAGSSCODE": "E09000026", "HECTARES": 204.043, "NONLD_AREA": 0.0 }, "geometry": null },
{ "type": "Feature", "properties": { "NAME": "Clayhall", "GSS_CODE": "E05011239", "DISTRICT": "Redbridge", "LAGSSCODE": "E09000026", "HECTARES": 253.321, "NONLD_AREA": 0.0 }, "geometry": null },
{ "type": "Feature", "properties": { "NAME": "Churchfields", "GSS_CODE": "E05011238", "DISTRICT": "Redbridge", "LAGSSCODE": "E09000026", "HECTARES": 201.609, "NONLD_AREA": 0.0 }, "geometry": null },
{ "type": "Feature", "properties": { "NAME": "Barkingside", "GSS_CODE": "E05011235", "DISTRICT": "Redbridge", "LAGSSCODE": "E09000026", "HECTARES": 162.98, "NONLD_AREA": 0.0 }, "geometry": null },
{ "type": "Feature", "properties": { "NAME": "Chadwell", "GSS_CODE": "E05011237", "DISTRICT": "Redbridge", "LAGSSCODE": "E09000026", "HECTARES": 155.574, "NONLD_AREA": 0.0 }, "geometry": null },
{ "type": "Feature", "properties": { "NAME": "Monkhams", "GSS_CODE": "E05011249", "DISTRICT": "Redbridge", "LAGSSCODE": "E09000026", "HECTARES": 279.546, "NONLD_AREA": 0.0 }, "geometry": null },
{ "type": "Feature", "properties": { "NAME": "Carshalton South and Clockhouse", "GSS_CODE": "E05000559", "DISTRICT": "Sutton", "LAGSSCODE": "E09000029", "HECTARES": 705.342, "NONLD_AREA": 0.0 }, "geometry": null },
{ "type": "Feature", "properties": { "NAME": "Cheam", "GSS_CODE": "E05000560", "DISTRICT": "Sutton", "LAGSSCODE": "E09000029", "HECTARES": 393.038, "NONLD_AREA": 0.0 }, "geometry": null },
{ "type": "Feature", "properties": { "NAME": "Beddington South", "GSS_CODE": "E05000556", "DISTRICT": "Sutton", "LAGSSCODE": "E09000029", "HECTARES": 306.104, "NONLD_AREA": 0.0 }, "geometry": null },
{ "type": "Feature", "properties": { "NAME": "St. Helier", "GSS_CODE": "E05000562", "DISTRICT": "Sutton", "LAGSSCODE": "E09000029", "HECTARES": 149.667, "NONLD_AREA": 0.0 }, "geometry": null },
{ "type": "Feature", "properties": { "NAME": "Wandle Valley", "GSS_CODE": "E05000571", "DISTRICT": "Sutton", "LAGSSCODE": "E09000029", "HECTARES": 205.369, "NONLD_AREA": 0.0 }, "geometry": null },
{ "type": "Feature", "properties": { "NAME": "Belmont", "GSS_CODE": "E05000557", "DISTRICT": "Sutton", "LAGSSCODE": "E09000029", "HECTARES": 233.332, "NONLD_AREA": 0.0 }, "geometry": null },
{ "type": "Feature", "properties": { "NAME": "Nonsuch", "GSS_CODE": "E05000561", "DISTRICT": "Sutton", "LAGSSCODE": "E09000029", "HECTARES": 190.702, "NONLD_AREA": 0.0 }, "geometry": null },
{ "type": "Feature", "properties": { "NAME": "Worcester Park", "GSS_CODE": "E05000572", "DISTRICT": "Sutton", "LAGSSCODE": "E09000029", "HECTARES": 195.703, "NONLD_AREA": 0.0 }, "geometry": null },
{ "type": "Feature", "properties": { "NAME": "Sutton South", "GSS_CODE": "E05000566", "DISTRICT": "Sutton", "LAGSSCODE": "E09000029", "HECTARES": 127.159, "NONLD_AREA": 0.0 }, "geometry": null },
{ "type": "Feature", "properties": { "NAME": "Sutton West", "GSS_CODE": "E05000567", "DISTRICT": "Sutton", "LAGSSCODE": "E09000029", "HECTARES": 178.215, "NONLD_AREA": 0.0 }, "geometry": null },
{ "type": "Feature", "properties": { "NAME": "Sutton Central", "GSS_CODE": "E05000564", "DISTRICT": "Sutton", "LAGSSCODE": "E09000029", "HECTARES": 131.048, "NONLD_AREA": 0.0 }, "geometry": null },
{ "type": "Feature", "properties": { "NAME": "Carshalton Central", "GSS_CODE": "E05000558", "DISTRICT": "Sutton", "LAGSSCODE": "E09000029", "HECTARES": 202.382, "NONLD_AREA": 0.0 }, "geometry": null },
{ "type": "Feature", "properties": { "NAME": "Sutton North", "GSS_CODE": "E05000565", "DISTRICT": "Sutton", "LAGSSCODE": "E09000029", "HECTARES": 187.372, "NONLD_AREA": 0.0 }, "geometry": null },
{ "type": "Feature", "properties": { "NAME": "Stonecot", "GSS_CODE": "E05000563", "DISTRICT": "Sutton", "LAGSSCODE": "E09000029", "HECTARES": 198.358, "NONLD_AREA": 0.0 }, "geometry": null },
{ "type": "Feature", "properties": { "NAME": "The Wrythe", "GSS_CODE": "E05000568", "DISTRICT": "Sutton", "LAGSSCODE": "E09000029", "HECTARES": 148.361, "NONLD_AREA": 0.0 }, "geometry": null },
{ "type": "Feature", "properties": { "NAME": "Wallington South", "GSS_CODE": "E05000570", "DISTRICT": "Sutton", "LAGSSCODE": "E09000029", "HECTARES": 171.798, "NONLD_AREA": 0.0 }, "geometry": null },
{ "type": "Feature", "properties": { "NAME": "Wallington North", "GSS_CODE": "E05000569", "DISTRICT": "Sutton", "LAGSSCODE": "E09000029", "HECTARES": 161.927, "NONLD_AREA": 0.0 }, "geometry": null },
{ "type": "Feature", "properties": { "NAME": "Beddington North", "GSS_CODE": "E05000555", "DISTRICT": "Sutton", "LAGSSCODE": "E09000029", "HECTARES": 498.821, "NONLD_AREA": 0.0 }, "geometry": null },
{ "type": "Feature", "properties": { "NAME": "Hampton", "GSS_CODE": "E05000520", "DISTRICT": "Richmond upon Thames", "LAGSSCODE": "E09000027", "HECTARES": 687.724, "NONLD_AREA": 0.0 }, "geometry": null },
{ "type": "Feature", "properties": { "NAME": "Teddington", "GSS_CODE": "E05000530", "DISTRICT": "Richmond upon Thames", "LAGSSCODE": "E09000027", "HECTARES": 429.55, "NONLD_AREA": 2.823 }, "geometry": null },
{ "type": "Feature", "properties": { "NAME": "Hampton Wick", "GSS_CODE": "E05000522", "DISTRICT": "Richmond upon Thames", "LAGSSCODE": "E09000027", "HECTARES": 274.552, "NONLD_AREA": 0.444 }, "geometry": null },
{ "type": "Feature", "properties": { "NAME": "Heathfield", "GSS_CODE": "E05000523", "DISTRICT": "Richmond upon Thames", "LAGSSCODE": "E09000027", "HECTARES": 191.058, "NONLD_AREA": 0.0 }, "geometry": null },
{ "type": "Feature", "properties": { "NAME": "Twickenham Riverside", "GSS_CODE": "E05000531", "DISTRICT": "Richmond upon Thames", "LAGSSCODE": "E09000027", "HECTARES": 196.431, "NONLD_AREA": 21.262 }, "geometry": null },
{ "type": "Feature", "properties": { "NAME": "Ham, Petersham and Richmond Riverside", "GSS_CODE": "E05000519", "DISTRICT": "Richmond upon Thames", "LAGSSCODE": "E09000027", "HECTARES": 943.267, "NONLD_AREA": 18.15 }, "geometry": null },
{ "type": "Feature", "properties": { "NAME": "North Richmond", "GSS_CODE": "E05000526", "DISTRICT": "Richmond upon Thames", "LAGSSCODE": "E09000027", "HECTARES": 280.147, "NONLD_AREA": 8.585 }, "geometry": null },
{ "type": "Feature", "properties": { "NAME": "Kew", "GSS_CODE": "E05000524", "DISTRICT": "Richmond upon Thames", "LAGSSCODE": "E09000027", "HECTARES": 357.625, "NONLD_AREA": 27.583 }, "geometry": null },
{ "type": "Feature", "properties": { "NAME": "East Sheen", "GSS_CODE": "E05000517", "DISTRICT": "Richmond upon Thames", "LAGSSCODE": "E09000027", "HECTARES": 583.319, "NONLD_AREA": 0.0 }, "geometry": null },
{ "type": "Feature", "properties": { "NAME": "Mortlake and Barnes Common", "GSS_CODE": "E05000525", "DISTRICT": "Richmond upon Thames", "LAGSSCODE": "E09000027", "HECTARES": 193.608, "NONLD_AREA": 9.313 }, "geometry": null },
{ "type": "Feature", "properties": { "NAME": "Hampton North", "GSS_CODE": "E05000521", "DISTRICT": "Richmond upon Thames", "LAGSSCODE": "E09000027", "HECTARES": 194.98, "NONLD_AREA": 0.0 }, "geometry": null },
{ "type": "Feature", "properties": { "NAME": "Fulwell and Hampton Hill", "GSS_CODE": "E05000518", "DISTRICT": "Richmond upon Thames", "LAGSSCODE": "E09000027", "HECTARES": 191.772, "NONLD_AREA": 0.0 }, "geometry": null },
{ "type": "Feature", "properties": { "NAME": "West Twickenham", "GSS_CODE": "E05000532", "DISTRICT": "Richmond upon Thames", "LAGSSCODE": "E09000027", "HECTARES": 245.856, "NONLD_AREA": 0.0 }, "geometry": null },
{ "type": "Feature", "properties": { "NAME": "Whitton", "GSS_CODE": "E05000533", "DISTRICT": "Richmond upon Thames", "LAGSSCODE": "E09000027", "HECTARES": 162.597, "NONLD_AREA": 0.0 }, "geometry": null },
{ "type": "Feature", "properties": { "NAME": "South Twickenham", "GSS_CODE": "E05000529", "DISTRICT": "Richmond upon Thames", "LAGSSCODE": "E09000027", "HECTARES": 172.727, "NONLD_AREA": 3.688 }, "geometry": null },
{ "type": "Feature", "properties": { "NAME": "St. Margarets and North Twickenham", "GSS_CODE": "E05000527", "DISTRICT": "Richmond upon Thames", "LAGSSCODE": "E09000027", "HECTARES": 200.763, "NONLD_AREA": 4.026 }, "geometry": null },
{ "type": "Feature", "properties": { "NAME": "South Richmond", "GSS_CODE": "E05000528", "DISTRICT": "Richmond upon Thames", "LAGSSCODE": "E09000027", "HECTARES": 269.139, "NONLD_AREA": 3.142 }, "geometry": null },
{ "type": "Feature", "properties": { "NAME": "Barnes", "GSS_CODE": "E05000516", "DISTRICT": "Richmond upon Thames", "LAGSSCODE": "E09000027", "HECTARES": 300.994, "NONLD_AREA": 36.426 }, "geometry": null },
{ "type": "Feature", "properties": { "NAME": "Cannon Hill", "GSS_CODE": "E05000456", "DISTRICT": "Merton", "LAGSSCODE": "E09000024", "HECTARES": 222.344, "NONLD_AREA": 0.0 }, "geometry": null },
{ "type": "Feature", "properties": { "NAME": "Cricket Green", "GSS_CODE": "E05000458", "DISTRICT": "Merton", "LAGSSCODE": "E09000024", "HECTARES": 299.553, "NONLD_AREA": 0.0 }, "geometry": null },
{ "type": "Feature", "properties": { "NAME": "Village", "GSS_CODE": "E05000472", "DISTRICT": "Merton", "LAGSSCODE": "E09000024", "HECTARES": 621.285, "NONLD_AREA": 0.0 }, "geometry": null },
{ "type": "Feature", "properties": { "NAME": "Wimbledon Park", "GSS_CODE": "E05000474", "DISTRICT": "Merton", "LAGSSCODE": "E09000024", "HECTARES": 231.007, "NONLD_AREA": 0.0 }, "geometry": null },
{ "type": "Feature", "properties": { "NAME": "Lower Morden", "GSS_CODE": "E05000465", "DISTRICT": "Merton", "LAGSSCODE": "E09000024", "HECTARES": 180.378, "NONLD_AREA": 0.0 }, "geometry": null },
{ "type": "Feature", "properties": { "NAME": "West Barnes", "GSS_CODE": "E05000473", "DISTRICT": "Merton", "LAGSSCODE": "E09000024", "HECTARES": 195.164, "NONLD_AREA": 0.0 }, "geometry": null },
{ "type": "Feature", "properties": { "NAME": "Raynes Park", "GSS_CODE": "E05000469", "DISTRICT": "Merton", "LAGSSCODE": "E09000024", "HECTARES": 185.651, "NONLD_AREA": 0.0 }, "geometry": null },
{ "type": "Feature", "properties": { "NAME": "Dundonald", "GSS_CODE": "E05000459", "DISTRICT": "Merton", "LAGSSCODE": "E09000024", "HECTARES": 115.197, "NONLD_AREA": 0.0 }, "geometry": null },
{ "type": "Feature", "properties": { "NAME": "St. Helier", "GSS_CODE": "E05000470", "DISTRICT": "Merton", "LAGSSCODE": "E09000024", "HECTARES": 184.527, "NONLD_AREA": 0.0 }, "geometry": null },
{ "type": "Feature", "properties": { "NAME": "Ravensbury", "GSS_CODE": "E05000468", "DISTRICT": "Merton", "LAGSSCODE": "E09000024", "HECTARES": 183.954, "NONLD_AREA": 0.0 }, "geometry": null },
{ "type": "Feature", "properties": { "NAME": "Merton Park", "GSS_CODE": "E05000466", "DISTRICT": "Merton", "LAGSSCODE": "E09000024", "HECTARES": 181.418, "NONLD_AREA": 0.0 }, "geometry": null },
{ "type": "Feature", "properties": { "NAME": "Abbey", "GSS_CODE": "E05000455", "DISTRICT": "Merton", "LAGSSCODE": "E09000024", "HECTARES": 139.326, "NONLD_AREA": 0.0 }, "geometry": null },
{ "type": "Feature", "properties": { "NAME": "Figge's Marsh", "GSS_CODE": "E05000460", "DISTRICT": "Merton", "LAGSSCODE": "E09000024", "HECTARES": 114.19, "NONLD_AREA": 0.0 }, "geometry": null },
{ "type": "Feature", "properties": { "NAME": "Pollards Hill", "GSS_CODE": "E05000467", "DISTRICT": "Merton", "LAGSSCODE": "E09000024", "HECTARES": 216.326, "NONLD_AREA": 0.0 }, "geometry": null },
{ "type": "Feature", "properties": { "NAME": "Graveney", "GSS_CODE": "E05000461", "DISTRICT": "Merton", "LAGSSCODE": "E09000024", "HECTARES": 88.249, "NONLD_AREA": 0.0 }, "geometry": null },
{ "type": "Feature", "properties": { "NAME": "Longthornton", "GSS_CODE": "E05000464", "DISTRICT": "Merton", "LAGSSCODE": "E09000024", "HECTARES": 148.343, "NONLD_AREA": 0.0 }, "geometry": null },
{ "type": "Feature", "properties": { "NAME": "Hillside", "GSS_CODE": "E05000462", "DISTRICT": "Merton", "LAGSSCODE": "E09000024", "HECTARES": 118.898, "NONLD_AREA": 0.0 }, "geometry": null },
{ "type": "Feature", "properties": { "NAME": "Trinity", "GSS_CODE": "E05000471", "DISTRICT": "Merton", "LAGSSCODE": "E09000024", "HECTARES": 107.601, "NONLD_AREA": 0.0 }, "geometry": null },
{ "type": "Feature", "properties": { "NAME": "Lavender Fields", "GSS_CODE": "E05000463", "DISTRICT": "Merton", "LAGSSCODE": "E09000024", "HECTARES": 117.965, "NONLD_AREA": 0.0 }, "geometry": null },
{ "type": "Feature", "properties": { "NAME": "Colliers Wood", "GSS_CODE": "E05000457", "DISTRICT": "Merton", "LAGSSCODE": "E09000024", "HECTARES": 111.09, "NONLD_AREA": 0.0 }, "geometry": null },
{ "type": "Feature", "properties": { "NAME": "Roehampton and Putney Heath", "GSS_CODE": "E05000621", "DISTRICT": "Wandsworth", "LAGSSCODE": "E09000032", "HECTARES": 442.415, "NONLD_AREA": 0.0 }, "geometry": null },
{ "type": "Feature", "properties": { "NAME": "Thamesfield", "GSS_CODE": "E05000625", "DISTRICT": "Wandsworth", "LAGSSCODE": "E09000032", "HECTARES": 192.172, "NONLD_AREA": 26.211 }, "geometry": null },
{ "type": "Feature", "properties": { "NAME": "Wandsworth Common", "GSS_CODE": "E05000627", "DISTRICT": "Wandsworth", "LAGSSCODE": "E09000032", "HECTARES": 276.497, "NONLD_AREA": 0.0 }, "geometry": null },
{ "type": "Feature", "properties": { "NAME": "West Hill", "GSS_CODE": "E05000628", "DISTRICT": "Wandsworth", "LAGSSCODE": "E09000032", "HECTARES": 168.568, "NONLD_AREA": 0.0 }, "geometry": null },
{ "type": "Feature", "properties": { "NAME": "West Putney", "GSS_CODE": "E05000629", "DISTRICT": "Wandsworth", "LAGSSCODE": "E09000032", "HECTARES": 184.761, "NONLD_AREA": 0.0 }, "geometry": null },
{ "type": "Feature", "properties": { "NAME": "East Putney", "GSS_CODE": "E05000613", "DISTRICT": "Wandsworth", "LAGSSCODE": "E09000032", "HECTARES": 161.034, "NONLD_AREA": 0.0 }, "geometry": null },
{ "type": "Feature", "properties": { "NAME": "Graveney", "GSS_CODE": "E05000616", "DISTRICT": "Wandsworth", "LAGSSCODE": "E09000032", "HECTARES": 101.117, "NONLD_AREA": 0.0 }, "geometry": null },
{ "type": "Feature", "properties": { "NAME": "Tooting", "GSS_CODE": "E05000626", "DISTRICT": "Wandsworth", "LAGSSCODE": "E09000032", "HECTARES": 160.02, "NONLD_AREA": 0.0 }, "geometry": null },
{ "type": "Feature", "properties": { "NAME": "Southfields", "GSS_CODE": "E05000624", "DISTRICT": "Wandsworth", "LAGSSCODE": "E09000032", "HECTARES": 152.469, "NONLD_AREA": 0.0 }, "geometry": null },
{ "type": "Feature", "properties": { "NAME": "Earlsfield", "GSS_CODE": "E05000612", "DISTRICT": "Wandsworth", "LAGSSCODE": "E09000032", "HECTARES": 140.341, "NONLD_AREA": 0.0 }, "geometry": null },
{ "type": "Feature", "properties": { "NAME": "Nightingale", "GSS_CODE": "E05000618", "DISTRICT": "Wandsworth", "LAGSSCODE": "E09000032", "HECTARES": 123.197, "NONLD_AREA": 0.0 }, "geometry": null },
{ "type": "Feature", "properties": { "NAME": "Furzedown", "GSS_CODE": "E05000615", "DISTRICT": "Wandsworth", "LAGSSCODE": "E09000032", "HECTARES": 141.528, "NONLD_AREA": 0.0 }, "geometry": null },
{ "type": "Feature", "properties": { "NAME": "Bedford", "GSS_CODE": "E05000611", "DISTRICT": "Wandsworth", "LAGSSCODE": "E09000032", "HECTARES": 180.48, "NONLD_AREA": 0.0 }, "geometry": null },
{ "type": "Feature", "properties": { "NAME": "Balham", "GSS_CODE": "E05000610", "DISTRICT": "Wandsworth", "LAGSSCODE": "E09000032", "HECTARES": 121.176, "NONLD_AREA": 0.0 }, "geometry": null },
{ "type": "Feature", "properties": { "NAME": "Fairfield", "GSS_CODE": "E05000614", "DISTRICT": "Wandsworth", "LAGSSCODE": "E09000032", "HECTARES": 145.428, "NONLD_AREA": 6.745 }, "geometry": null },
{ "type": "Feature", "properties": { "NAME": "Northcote", "GSS_CODE": "E05000619", "DISTRICT": "Wandsworth", "LAGSSCODE": "E09000032", "HECTARES": 167.535, "NONLD_AREA": 0.0 }, "geometry": null },
{ "type": "Feature", "properties": { "NAME": "Latchmere", "GSS_CODE": "E05000617", "DISTRICT": "Wandsworth", "LAGSSCODE": "E09000032", "HECTARES": 108.326, "NONLD_AREA": 0.0 }, "geometry": null },
{ "type": "Feature", "properties": { "NAME": "St. Mary's Park", "GSS_CODE": "E05000622", "DISTRICT": "Wandsworth", "LAGSSCODE": "E09000032", "HECTARES": 139.685, "NONLD_AREA": 31.479 }, "geometry": null },
{ "type": "Feature", "properties": { "NAME": "Queenstown", "GSS_CODE": "E05000620", "DISTRICT": "Wandsworth", "LAGSSCODE": "E09000032", "HECTARES": 320.486, "NONLD_AREA": 31.244 }, "geometry": null },
{ "type": "Feature", "properties": { "NAME": "Shaftesbury", "GSS_CODE": "E05000623", "DISTRICT": "Wandsworth", "LAGSSCODE": "E09000032", "HECTARES": 94.789, "NONLD_AREA": 0.0 }, "geometry": null },
{ "type": "Feature", "properties": { "NAME": "Palace Riverside", "GSS_CODE": "E05000259", "DISTRICT": "Hammersmith and Fulham", "LAGSSCODE": "E09000013", "HECTARES": 148.083, "NONLD_AREA": 34.321 }, "geometry": null },
{ "type": "Feature", "properties": { "NAME": "Munster", "GSS_CODE": "E05000257", "DISTRICT": "Hammersmith and Fulham", "LAGSSCODE": "E09000013", "HECTARES": 62.427, "NONLD_AREA": 0.0 }, "geometry": null },
{ "type": "Feature", "properties": { "NAME": "Sands End", "GSS_CODE": "E05000262", "DISTRICT": "Hammersmith and Fulham", "LAGSSCODE": "E09000013", "HECTARES": 137.806, "NONLD_AREA": 23.596 }, "geometry": null },
{ "type": "Feature", "properties": { "NAME": "Parsons Green and Walham", "GSS_CODE": "E05000260", "DISTRICT": "Hammersmith and Fulham", "LAGSSCODE": "E09000013", "HECTARES": 89.587, "NONLD_AREA": 0.0 }, "geometry": null },
{ "type": "Feature", "properties": { "NAME": "Fulham Broadway", "GSS_CODE": "E05000254", "DISTRICT": "Hammersmith and Fulham", "LAGSSCODE": "E09000013", "HECTARES": 66.797, "NONLD_AREA": 0.0 }, "geometry": null },
{ "type": "Feature", "properties": { "NAME": "Ravenscourt Park", "GSS_CODE": "E05000261", "DISTRICT": "Hammersmith and Fulham", "LAGSSCODE": "E09000013", "HECTARES": 121.533, "NONLD_AREA": 6.317 }, "geometry": null },
{ "type": "Feature", "properties": { "NAME": "Hammersmith Broadway", "GSS_CODE": "E05000256", "DISTRICT": "Hammersmith and Fulham", "LAGSSCODE": "E09000013", "HECTARES": 110.305, "NONLD_AREA": 5.486 }, "geometry": null },
{ "type": "Feature", "properties": { "NAME": "Avonmore and Brook Green", "GSS_CODE": "E05000252", "DISTRICT": "Hammersmith and Fulham", "LAGSSCODE": "E09000013", "HECTARES": 89.659, "NONLD_AREA": 0.0 }, "geometry": null },
{ "type": "Feature", "properties": { "NAME": "Askew", "GSS_CODE": "E05000251", "DISTRICT": "Hammersmith and Fulham", "LAGSSCODE": "E09000013", "HECTARES": 76.25, "NONLD_AREA": 0.0 }, "geometry": null },
{ "type": "Feature", "properties": { "NAME": "Wormholt and White City", "GSS_CODE": "E05000265", "DISTRICT": "Hammersmith and Fulham", "LAGSSCODE": "E09000013", "HECTARES": 90.164, "NONLD_AREA": 0.0 }, "geometry": null },
{ "type": "Feature", "properties": { "NAME": "Shepherd's Bush Green", "GSS_CODE": "E05000263", "DISTRICT": "Hammersmith and Fulham", "LAGSSCODE": "E09000013", "HECTARES": 106.82, "NONLD_AREA": 0.0 }, "geometry": null },
{ "type": "Feature", "properties": { "NAME": "College Park and Old Oak", "GSS_CODE": "E05000253", "DISTRICT": "Hammersmith and Fulham", "LAGSSCODE": "E09000013", "HECTARES": 343.654, "NONLD_AREA": 0.0 }, "geometry": null },
{ "type": "Feature", "properties": { "NAME": "Town", "GSS_CODE": "E05000264", "DISTRICT": "Hammersmith and Fulham", "LAGSSCODE": "E09000013", "HECTARES": 65.129, "NONLD_AREA": 0.0 }, "geometry": null },
{ "type": "Feature", "properties": { "NAME": "Fulham Reach", "GSS_CODE": "E05000255", "DISTRICT": "Hammersmith and Fulham", "LAGSSCODE": "E09000013", "HECTARES": 88.198, "NONLD_AREA": 5.928 }, "geometry": null },
{ "type": "Feature", "properties": { "NAME": "North End", "GSS_CODE": "E05000258", "DISTRICT": "Hammersmith and Fulham", "LAGSSCODE": "E09000013", "HECTARES": 63.517, "NONLD_AREA": 0.0 }, "geometry": null },
{ "type": "Feature", "properties": { "NAME": "Addison", "GSS_CODE": "E05000250", "DISTRICT": "Hammersmith and Fulham", "LAGSSCODE": "E09000013", "HECTARES": 55.481, "NONLD_AREA": 0.0 }, "geometry": null },
{ "type": "Feature", "properties": { "NAME": "Chelsea Riverside", "GSS_CODE": "E05009391", "DISTRICT": "Kensington and Chelsea", "LAGSSCODE": "E09000020", "HECTARES": 69.412, "NONLD_AREA": 15.654 }, "geometry": null },
{ "type": "Feature", "properties": { "NAME": "Holland", "GSS_CODE": "E05009397", "DISTRICT": "Kensington and Chelsea", "LAGSSCODE": "E09000020", "HECTARES": 98.278, "NONLD_AREA": 0.0 }, "geometry": null },
{ "type": "Feature", "properties": { "NAME": "Norland", "GSS_CODE": "E05009398", "DISTRICT": "Kensington and Chelsea", "LAGSSCODE": "E09000020", "HECTARES": 51.967, "NONLD_AREA": 0.0 }, "geometry": null },
{ "type": "Feature", "properties": { "NAME": "Redcliffe", "GSS_CODE": "E05009402", "DISTRICT": "Kensington and Chelsea", "LAGSSCODE": "E09000020", "HECTARES": 71.854, "NONLD_AREA": 0.0 }, "geometry": null },
{ "type": "Feature", "properties": { "NAME": "Stanley", "GSS_CODE": "E05009405", "DISTRICT": "Kensington and Chelsea", "LAGSSCODE": "E09000020", "HECTARES": 72.424, "NONLD_AREA": 0.0 }, "geometry": null },
{ "type": "Feature", "properties": { "NAME": "Royal Hospital", "GSS_CODE": "E05009403", "DISTRICT": "Kensington and Chelsea", "LAGSSCODE": "E09000020", "HECTARES": 101.214, "NONLD_AREA": 10.34 }, "geometry": null },
{ "type": "Feature", "properties": { "NAME": "Notting Dale", "GSS_CODE": "E05009399", "DISTRICT": "Kensington and Chelsea", "LAGSSCODE": "E09000020", "HECTARES": 55.688, "NONLD_AREA": 0.0 }, "geometry": null },
{ "type": "Feature", "properties": { "NAME": "St. Helen's", "GSS_CODE": "E05009404", "DISTRICT": "Kensington and Chelsea", "LAGSSCODE": "E09000020", "HECTARES": 47.822, "NONLD_AREA": 0.0 }, "geometry": null },
{ "type": "Feature", "properties": { "NAME": "Colville", "GSS_CODE": "E05009392", "DISTRICT": "Kensington and Chelsea", "LAGSSCODE": "E09000020", "HECTARES": 48.988, "NONLD_AREA": 0.0 }, "geometry": null },
{ "type": "Feature", "properties": { "NAME": "Dalgarno", "GSS_CODE": "E05009394", "DISTRICT": "Kensington and Chelsea", "LAGSSCODE": "E09000020", "HECTARES": 88.982, "NONLD_AREA": 0.0 }, "geometry": null },
{ "type": "Feature", "properties": { "NAME": "Golborne", "GSS_CODE": "E05009396", "DISTRICT": "Kensington and Chelsea", "LAGSSCODE": "E09000020", "HECTARES": 55.852, "NONLD_AREA": 0.0 }, "geometry": null },
{ "type": "Feature", "properties": { "NAME": "Earl's Court", "GSS_CODE": "E05009395", "DISTRICT": "Kensington and Chelsea", "LAGSSCODE": "E09000020", "HECTARES": 48.226, "NONLD_AREA": 0.0 }, "geometry": null },
{ "type": "Feature", "properties": { "NAME": "Courtfield", "GSS_CODE": "E05009393", "DISTRICT": "Kensington and Chelsea", "LAGSSCODE": "E09000020", "HECTARES": 61.433, "NONLD_AREA": 0.0 }, "geometry": null },
{ "type": "Feature", "properties": { "NAME": "Abingdon", "GSS_CODE": "E05009388", "DISTRICT": "Kensington and Chelsea", "LAGSSCODE": "E09000020", "HECTARES": 60.179, "NONLD_AREA": 0.0 }, "geometry": null },
{ "type": "Feature", "properties": { "NAME": "Queen's Gate", "GSS_CODE": "E05009401", "DISTRICT": "Kensington and Chelsea", "LAGSSCODE": "E09000020", "HECTARES": 58.218, "NONLD_AREA": 0.0 }, "geometry": null },
{ "type": "Feature", "properties": { "NAME": "Brompton & Hans Town", "GSS_CODE": "E05009389", "DISTRICT": "Kensington and Chelsea", "LAGSSCODE": "E09000020", "HECTARES": 106.809, "NONLD_AREA": 0.0 }, "geometry": null },
{ "type": "Feature", "properties": { "NAME": "Campden", "GSS_CODE": "E05009390", "DISTRICT": "Kensington and Chelsea", "LAGSSCODE": "E09000020", "HECTARES": 102.376, "NONLD_AREA": 0.0 }, "geometry": null },
{ "type": "Feature", "properties": { "NAME": "Pembridge", "GSS_CODE": "E05009400", "DISTRICT": "Kensington and Chelsea", "LAGSSCODE": "E09000020", "HECTARES": 38.656, "NONLD_AREA": 0.0 }, "geometry": null },
{ "type": "Feature", "properties": { "NAME": "St. James's", "GSS_CODE": "E05000644", "DISTRICT": "City of Westminster", "LAGSSCODE": "E09000033", "HECTARES": 346.379, "NONLD_AREA": 27.146 }, "geometry": null },
{ "type": "Feature", "properties": { "NAME": "Lancaster Gate", "GSS_CODE": "E05000638", "DISTRICT": "City of Westminster", "LAGSSCODE": "E09000033", "HECTARES": 63.082, "NONLD_AREA": 0.0 }, "geometry": null },
{ "type": "Feature", "properties": { "NAME": "Knightsbridge and Belgravia", "GSS_CODE": "E05000637", "DISTRICT": "City of Westminster", "LAGSSCODE": "E09000033", "HECTARES": 359.43, "NONLD_AREA": 0.0 }, "geometry": null },
{ "type": "Feature", "properties": { "NAME": "Hyde Park", "GSS_CODE": "E05000636", "DISTRICT": "City of Westminster", "LAGSSCODE": "E09000033", "HECTARES": 95.514, "NONLD_AREA": 0.0 }, "geometry": null },
{ "type": "Feature", "properties": { "NAME": "Churchill", "GSS_CODE": "E05000633", "DISTRICT": "City of Westminster", "LAGSSCODE": "E09000033", "HECTARES": 60.923, "NONLD_AREA": 9.333 }, "geometry": null },
{ "type": "Feature", "properties": { "NAME": "Vincent Square", "GSS_CODE": "E05000646", "DISTRICT": "City of Westminster", "LAGSSCODE": "E09000033", "HECTARES": 68.355, "NONLD_AREA": 8.89 }, "geometry": null },
{ "type": "Feature", "properties": { "NAME": "West End", "GSS_CODE": "E05000649", "DISTRICT": "City of Westminster", "LAGSSCODE": "E09000033", "HECTARES": 199.973, "NONLD_AREA": 0.0 }, "geometry": null },
{ "type": "Feature", "properties": { "NAME": "Harrow Road", "GSS_CODE": "E05000635", "DISTRICT": "City of Westminster", "LAGSSCODE": "E09000033", "HECTARES": 49.579, "NONLD_AREA": 0.0 }, "geometry": null },
{ "type": "Feature", "properties": { "NAME": "Bryanston and Dorset Square", "GSS_CODE": "E05000632", "DISTRICT": "City of Westminster", "LAGSSCODE": "E09000033", "HECTARES": 72.318, "NONLD_AREA": 0.0 }, "geometry": null },
{ "type": "Feature", "properties": { "NAME": "Regent's Park", "GSS_CODE": "E05000643", "DISTRICT": "City of Westminster", "LAGSSCODE": "E09000033", "HECTARES": 225.576, "NONLD_AREA": 0.0 }, "geometry": null },
{ "type": "Feature", "properties": { "NAME": "Abbey Road", "GSS_CODE": "E05000630", "DISTRICT": "City of Westminster", "LAGSSCODE": "E09000033", "HECTARES": 109.492, "NONLD_AREA": 0.0 }, "geometry": null },
{ "type": "Feature", "properties": { "NAME": "Marylebone High Street", "GSS_CODE": "E05000641", "DISTRICT": "City of Westminster", "LAGSSCODE": "E09000033", "HECTARES": 100.107, "NONLD_AREA": 0.0 }, "geometry": null },
{ "type": "Feature", "properties": { "NAME": "Queen's Park", "GSS_CODE": "E05000642", "DISTRICT": "City of Westminster", "LAGSSCODE": "E09000033", "HECTARES": 58.381, "NONLD_AREA": 0.0 }, "geometry": null },
{ "type": "Feature", "properties": { "NAME": "Bayswater", "GSS_CODE": "E05000631", "DISTRICT": "City of Westminster", "LAGSSCODE": "E09000033", "HECTARES": 51.949, "NONLD_AREA": 0.0 }, "geometry": null },
{ "type": "Feature", "properties": { "NAME": "Warwick", "GSS_CODE": "E05000647", "DISTRICT": "City of Westminster", "LAGSSCODE": "E09000033", "HECTARES": 57.354, "NONLD_AREA": 0.0 }, "geometry": null },
{ "type": "Feature", "properties": { "NAME": "Tachbrook", "GSS_CODE": "E05000645", "DISTRICT": "City of Westminster", "LAGSSCODE": "E09000033", "HECTARES": 44.328, "NONLD_AREA": 8.94 }, "geometry": null },
{ "type": "Feature", "properties": { "NAME": "Westbourne", "GSS_CODE": "E05000648", "DISTRICT": "City of Westminster", "LAGSSCODE": "E09000033", "HECTARES": 67.646, "NONLD_AREA": 0.0 }, "geometry": null },
{ "type": "Feature", "properties": { "NAME": "Little Venice", "GSS_CODE": "E05000639", "DISTRICT": "City of Westminster", "LAGSSCODE": "E09000033", "HECTARES": 63.733, "NONLD_AREA": 0.0 }, "geometry": null },
{ "type": "Feature", "properties": { "NAME": "Maida Vale", "GSS_CODE": "E05000640", "DISTRICT": "City of Westminster", "LAGSSCODE": "E09000033", "HECTARES": 64.615, "NONLD_AREA": 0.0 }, "geometry": null },
{ "type": "Feature", "properties": { "NAME": "Church Street", "GSS_CODE": "E05000634", "DISTRICT": "City of Westminster", "LAGSSCODE": "E09000033", "HECTARES": 44.269, "NONLD_AREA": 0.0 }, "geometry": null },
{ "type": "Feature", "properties": { "NAME": "Swiss Cottage", "GSS_CODE": "E05000144", "DISTRICT": "Camden", "LAGSSCODE": "E09000007", "HECTARES": 125.671, "NONLD_AREA": 0.0 }, "geometry": null },
{ "type": "Feature", "properties": { "NAME": "Highgate", "GSS_CODE": "E05000137", "DISTRICT": "Camden", "LAGSSCODE": "E09000007", "HECTARES": 323.926, "NONLD_AREA": 0.0 }, "geometry": null },
{ "type": "Feature", "properties": { "NAME": "Kilburn", "GSS_CODE": "E05000140", "DISTRICT": "Camden", "LAGSSCODE": "E09000007", "HECTARES": 68.518, "NONLD_AREA": 0.0 }, "geometry": null },
{ "type": "Feature", "properties": { "NAME": "Bloomsbury", "GSS_CODE": "E05000129", "DISTRICT": "Camden", "LAGSSCODE": "E09000007", "HECTARES": 102.091, "NONLD_AREA": 0.0 }, "geometry": null },
{ "type": "Feature", "properties": { "NAME": "Holborn and Covent Garden", "GSS_CODE": "E05000138", "DISTRICT": "Camden", "LAGSSCODE": "E09000007", "HECTARES": 119.493, "NONLD_AREA": 0.0 }, "geometry": null },
{ "type": "Feature", "properties": { "NAME": "St. Pancras and Somers Town", "GSS_CODE": "E05000143", "DISTRICT": "Camden", "LAGSSCODE": "E09000007", "HECTARES": 139.889, "NONLD_AREA": 0.0 }, "geometry": null },
{ "type": "Feature", "properties": { "NAME": "Camden Town with Primrose Hill", "GSS_CODE": "E05000130", "DISTRICT": "Camden", "LAGSSCODE": "E09000007", "HECTARES": 116.615, "NONLD_AREA": 0.0 }, "geometry": null },
{ "type": "Feature", "properties": { "NAME": "Cantelowes", "GSS_CODE": "E05000131", "DISTRICT": "Camden", "LAGSSCODE": "E09000007", "HECTARES": 75.933, "NONLD_AREA": 0.0 }, "geometry": null },
{ "type": "Feature", "properties": { "NAME": "King's Cross", "GSS_CODE": "E05000141", "DISTRICT": "Camden", "LAGSSCODE": "E09000007", "HECTARES": 61.138, "NONLD_AREA": 0.0 }, "geometry": null },
{ "type": "Feature", "properties": { "NAME": "Fortune Green", "GSS_CODE": "E05000132", "DISTRICT": "Camden", "LAGSSCODE": "E09000007", "HECTARES": 100.652, "NONLD_AREA": 0.0 }, "geometry": null },
{ "type": "Feature", "properties": { "NAME": "Frognal and Fitzjohns", "GSS_CODE": "E05000133", "DISTRICT": "Camden", "LAGSSCODE": "E09000007", "HECTARES": 153.023, "NONLD_AREA": 0.0 }, "geometry": null },
{ "type": "Feature", "properties": { "NAME": "Gospel Oak", "GSS_CODE": "E05000134", "DISTRICT": "Camden", "LAGSSCODE": "E09000007", "HECTARES": 69.232, "NONLD_AREA": 0.0 }, "geometry": null },
{ "type": "Feature", "properties": { "NAME": "Hampstead Town", "GSS_CODE": "E05000135", "DISTRICT": "Camden", "LAGSSCODE": "E09000007", "HECTARES": 244.939, "NONLD_AREA": 0.0 }, "geometry": null },
{ "type": "Feature", "properties": { "NAME": "Kentish Town", "GSS_CODE": "E05000139", "DISTRICT": "Camden", "LAGSSCODE": "E09000007", "HECTARES": 102.895, "NONLD_AREA": 0.0 }, "geometry": null },
{ "type": "Feature", "properties": { "NAME": "West Hampstead", "GSS_CODE": "E05000145", "DISTRICT": "Camden", "LAGSSCODE": "E09000007", "HECTARES": 88.729, "NONLD_AREA": 0.0 }, "geometry": null },
{ "type": "Feature", "properties": { "NAME": "Belsize", "GSS_CODE": "E05000128", "DISTRICT": "Camden", "LAGSSCODE": "E09000007", "HECTARES": 78.057, "NONLD_AREA": 0.0 }, "geometry": null },
{ "type": "Feature", "properties": { "NAME": "Haverstock", "GSS_CODE": "E05000136", "DISTRICT": "Camden", "LAGSSCODE": "E09000007", "HECTARES": 73.177, "NONLD_AREA": 0.0 }, "geometry": null },
{ "type": "Feature", "properties": { "NAME": "Regent's Park", "GSS_CODE": "E05000142", "DISTRICT": "Camden", "LAGSSCODE": "E09000007", "HECTARES": 134.956, "NONLD_AREA": 0.0 }, "geometry": null },
{ "type": "Feature", "properties": { "NAME": "St. Katharine's & Wapping", "GSS_CODE": "E05009330", "DISTRICT": "Tower Hamlets", "LAGSSCODE": "E09000030", "HECTARES": 149.089, "NONLD_AREA": 42.323 }, "geometry": null },
{ "type": "Feature", "properties": { "NAME": "Shadwell", "GSS_CODE": "E05009332", "DISTRICT": "Tower Hamlets", "LAGSSCODE": "E09000030", "HECTARES": 64.273, "NONLD_AREA": 0.0 }, "geometry": null },
{ "type": "Feature", "properties": { "NAME": "Island Gardens", "GSS_CODE": "E05009324", "DISTRICT": "Tower Hamlets", "LAGSSCODE": "E09000030", "HECTARES": 150.812, "NONLD_AREA": 44.334 }, "geometry": null },
{ "type": "Feature", "properties": { "NAME": "Canary Wharf", "GSS_CODE": "E05009323", "DISTRICT": "Tower Hamlets", "LAGSSCODE": "E09000030", "HECTARES": 164.207, "NONLD_AREA": 22.894 }, "geometry": null },
{ "type": "Feature", "properties": { "NAME": "Blackwall & Cubitt Town", "GSS_CODE": "E05009318", "DISTRICT": "Tower Hamlets", "LAGSSCODE": "E09000030", "HECTARES": 188.125, "NONLD_AREA": 52.756 }, "geometry": null },
{ "type": "Feature", "properties": { "NAME": "Poplar", "GSS_CODE": "E05009328", "DISTRICT": "Tower Hamlets", "LAGSSCODE": "E09000030", "HECTARES": 71.04, "NONLD_AREA": 1.509 }, "geometry": null },
{ "type": "Feature", "properties": { "NAME": "Spitalfields & Banglatown", "GSS_CODE": "E05009333", "DISTRICT": "Tower Hamlets", "LAGSSCODE": "E09000030", "HECTARES": 90.895, "NONLD_AREA": 0.0 }, "geometry": null },
{ "type": "Feature", "properties": { "NAME": "St. Peter's", "GSS_CODE": "E05009331", "DISTRICT": "Tower Hamlets", "LAGSSCODE": "E09000030", "HECTARES": 108.391, "NONLD_AREA": 0.0 }, "geometry": null },
{ "type": "Feature", "properties": { "NAME": "Bethnal Green", "GSS_CODE": "E05009317", "DISTRICT": "Tower Hamlets", "LAGSSCODE": "E09000030", "HECTARES": 121.357, "NONLD_AREA": 0.0 }, "geometry": null },
{ "type": "Feature", "properties": { "NAME": "St. Dunstan's", "GSS_CODE": "E05009329", "DISTRICT": "Tower Hamlets", "LAGSSCODE": "E09000030", "HECTARES": 67.907, "NONLD_AREA": 0.0 }, "geometry": null },
{ "type": "Feature", "properties": { "NAME": "Mile End", "GSS_CODE": "E05009327", "DISTRICT": "Tower Hamlets", "LAGSSCODE": "E09000030", "HECTARES": 121.498, "NONLD_AREA": 0.0 }, "geometry": null },
{ "type": "Feature", "properties": { "NAME": "Lansbury", "GSS_CODE": "E05009325", "DISTRICT": "Tower Hamlets", "LAGSSCODE": "E09000030", "HECTARES": 131.561, "NONLD_AREA": 4.54 }, "geometry": null },
{ "type": "Feature", "properties": { "NAME": "Bromley South", "GSS_CODE": "E05009322", "DISTRICT": "Tower Hamlets", "LAGSSCODE": "E09000030", "HECTARES": 68.791, "NONLD_AREA": 0.0 }, "geometry": null },
{ "type": "Feature", "properties": { "NAME": "Bow West", "GSS_CODE": "E05009320", "DISTRICT": "Tower Hamlets", "LAGSSCODE": "E09000030", "HECTARES": 134.33, "NONLD_AREA": 0.0 }, "geometry": null },
{ "type": "Feature", "properties": { "NAME": "Bow East", "GSS_CODE": "E05009319", "DISTRICT": "Tower Hamlets", "LAGSSCODE": "E09000030", "HECTARES": 186.62, "NONLD_AREA": 0.0 }, "geometry": null },
{ "type": "Feature", "properties": { "NAME": "Bromley North", "GSS_CODE": "E05009321", "DISTRICT": "Tower Hamlets", "LAGSSCODE": "E09000030", "HECTARES": 60.658, "NONLD_AREA": 0.0 }, "geometry": null },
{ "type": "Feature", "properties": { "NAME": "Whitechapel", "GSS_CODE": "E05009336", "DISTRICT": "Tower Hamlets", "LAGSSCODE": "E09000030", "HECTARES": 95.978, "NONLD_AREA": 0.0 }, "geometry": null },
{ "type": "Feature", "properties": { "NAME": "Stepney Green", "GSS_CODE": "E05009334", "DISTRICT": "Tower Hamlets", "LAGSSCODE": "E09000030", "HECTARES": 64.822, "NONLD_AREA": 0.0 }, "geometry": null },
{ "type": "Feature", "properties": { "NAME": "Limehouse", "GSS_CODE": "E05009326", "DISTRICT": "Tower Hamlets", "LAGSSCODE": "E09000030", "HECTARES": 49.612, "NONLD_AREA": 10.51 }, "geometry": null },
{ "type": "Feature", "properties": { "NAME": "Weavers", "GSS_CODE": "E05009335", "DISTRICT": "Tower Hamlets", "LAGSSCODE": "E09000030", "HECTARES": 67.536, "NONLD_AREA": 0.0 }, "geometry": null },
{ "type": "Feature", "properties": { "NAME": "Clerkenwell", "GSS_CODE": "E05000370", "DISTRICT": "Islington", "LAGSSCODE": "E09000019", "HECTARES": 93.263, "NONLD_AREA": 0.0 }, "geometry": null },
{ "type": "Feature", "properties": { "NAME": "Caledonian", "GSS_CODE": "E05000368", "DISTRICT": "Islington", "LAGSSCODE": "E09000019", "HECTARES": 113.611, "NONLD_AREA": 0.0 }, "geometry": null },
{ "type": "Feature", "properties": { "NAME": "St. Mary's", "GSS_CODE": "E05000379", "DISTRICT": "Islington", "LAGSSCODE": "E09000019", "HECTARES": 86.831, "NONLD_AREA": 0.0 }, "geometry": null },
{ "type": "Feature", "properties": { "NAME": "Holloway", "GSS_CODE": "E05000375", "DISTRICT": "Islington", "LAGSSCODE": "E09000019", "HECTARES": 100.874, "NONLD_AREA": 0.0 }, "geometry": null },
{ "type": "Feature", "properties": { "NAME": "Highbury East", "GSS_CODE": "E05000372", "DISTRICT": "Islington", "LAGSSCODE": "E09000019", "HECTARES": 100.809, "NONLD_AREA": 0.0 }, "geometry": null },
{ "type": "Feature", "properties": { "NAME": "Highbury West", "GSS_CODE": "E05000373", "DISTRICT": "Islington", "LAGSSCODE": "E09000019", "HECTARES": 108.254, "NONLD_AREA": 0.0 }, "geometry": null },
{ "type": "Feature", "properties": { "NAME": "Tollington", "GSS_CODE": "E05000381", "DISTRICT": "Islington", "LAGSSCODE": "E09000019", "HECTARES": 84.866, "NONLD_AREA": 0.0 }, "geometry": null },
{ "type": "Feature", "properties": { "NAME": "Bunhill", "GSS_CODE": "E05000367", "DISTRICT": "Islington", "LAGSSCODE": "E09000019", "HECTARES": 108.263, "NONLD_AREA": 0.0 }, "geometry": null },
{ "type": "Feature", "properties": { "NAME": "St. Peter's", "GSS_CODE": "E05000380", "DISTRICT": "Islington", "LAGSSCODE": "E09000019", "HECTARES": 81.053, "NONLD_AREA": 0.0 }, "geometry": null },
{ "type": "Feature", "properties": { "NAME": "Canonbury", "GSS_CODE": "E05000369", "DISTRICT": "Islington", "LAGSSCODE": "E09000019", "HECTARES": 80.72, "NONLD_AREA": 0.0 }, "geometry": null },
{ "type": "Feature", "properties": { "NAME": "Barnsbury", "GSS_CODE": "E05000366", "DISTRICT": "Islington", "LAGSSCODE": "E09000019", "HECTARES": 83.012, "NONLD_AREA": 0.0 }, "geometry": null },
{ "type": "Feature", "properties": { "NAME": "St. George's", "GSS_CODE": "E05000378", "DISTRICT": "Islington", "LAGSSCODE": "E09000019", "HECTARES": 84.582, "NONLD_AREA": 0.0 }, "geometry": null },
{ "type": "Feature", "properties": { "NAME": "Junction", "GSS_CODE": "E05000376", "DISTRICT": "Islington", "LAGSSCODE": "E09000019", "HECTARES": 102.75, "NONLD_AREA": 0.0 }, "geometry": null },
{ "type": "Feature", "properties": { "NAME": "Finsbury Park", "GSS_CODE": "E05000371", "DISTRICT": "Islington", "LAGSSCODE": "E09000019", "HECTARES": 91.626, "NONLD_AREA": 0.0 }, "geometry": null },
{ "type": "Feature", "properties": { "NAME": "Hillrise", "GSS_CODE": "E05000374", "DISTRICT": "Islington", "LAGSSCODE": "E09000019", "HECTARES": 82.471, "NONLD_AREA": 0.0 }, "geometry": null },
{ "type": "Feature", "properties": { "NAME": "Mildmay", "GSS_CODE": "E05000377", "DISTRICT": "Islington", "LAGSSCODE": "E09000019", "HECTARES": 82.68, "NONLD_AREA": 0.0 }, "geometry": null },
{ "type": "Feature", "properties": { "NAME": "Hoxton East & Shoreditch", "GSS_CODE": "E05009377", "DISTRICT": "Hackney", "LAGSSCODE": "E09000012", "HECTARES": 102.355, "NONLD_AREA": 0.0 }, "geometry": null },
{ "type": "Feature", "properties": { "NAME": "Haggerston", "GSS_CODE": "E05009375", "DISTRICT": "Hackney", "LAGSSCODE": "E09000012", "HECTARES": 86.724, "NONLD_AREA": 0.0 }, "geometry": null },
{ "type": "Feature", "properties": { "NAME": "De Beauvoir", "GSS_CODE": "E05009371", "DISTRICT": "Hackney", "LAGSSCODE": "E09000012", "HECTARES": 59.347, "NONLD_AREA": 0.0 }, "geometry": null },
{ "type": "Feature", "properties": { "NAME": "London Fields", "GSS_CODE": "E05009381", "DISTRICT": "Hackney", "LAGSSCODE": "E09000012", "HECTARES": 101.739, "NONLD_AREA": 0.0 }, "geometry": null },
{ "type": "Feature", "properties": { "NAME": "Hackney Wick", "GSS_CODE": "E05009374", "DISTRICT": "Hackney", "LAGSSCODE": "E09000012", "HECTARES": 163.387, "NONLD_AREA": 0.0 }, "geometry": null },
{ "type": "Feature", "properties": { "NAME": "Clissold", "GSS_CODE": "E05009369", "DISTRICT": "Hackney", "LAGSSCODE": "E09000012", "HECTARES": 101.074, "NONLD_AREA": 0.0 }, "geometry": null },
{ "type": "Feature", "properties": { "NAME": "Hackney Downs", "GSS_CODE": "E05009373", "DISTRICT": "Hackney", "LAGSSCODE": "E09000012", "HECTARES": 101.849, "NONLD_AREA": 0.0 }, "geometry": null },
{ "type": "Feature", "properties": { "NAME": "Lea Bridge", "GSS_CODE": "E05009380", "DISTRICT": "Hackney", "LAGSSCODE": "E09000012", "HECTARES": 105.971, "NONLD_AREA": 0.0 }, "geometry": null },
{ "type": "Feature", "properties": { "NAME": "Cazenove", "GSS_CODE": "E05009368", "DISTRICT": "Hackney", "LAGSSCODE": "E09000012", "HECTARES": 74.154, "NONLD_AREA": 0.0 }, "geometry": null },
{ "type": "Feature", "properties": { "NAME": "Springfield", "GSS_CODE": "E05009383", "DISTRICT": "Hackney", "LAGSSCODE": "E09000012", "HECTARES": 121.297, "NONLD_AREA": 0.0 }, "geometry": null },
{ "type": "Feature", "properties": { "NAME": "King's Park", "GSS_CODE": "E05009379", "DISTRICT": "Hackney", "LAGSSCODE": "E09000012", "HECTARES": 191.572, "NONLD_AREA": 0.0 }, "geometry": null },
{ "type": "Feature", "properties": { "NAME": "Brownswood", "GSS_CODE": "E05009367", "DISTRICT": "Hackney", "LAGSSCODE": "E09000012", "HECTARES": 48.248, "NONLD_AREA": 0.0 }, "geometry": null },
{ "type": "Feature", "properties": { "NAME": "Hoxton West", "GSS_CODE": "E05009378", "DISTRICT": "Hackney", "LAGSSCODE": "E09000012", "HECTARES": 64.802, "NONLD_AREA": 0.0 }, "geometry": null },
{ "type": "Feature", "properties": { "NAME": "Dalston", "GSS_CODE": "E05009370", "DISTRICT": "Hackney", "LAGSSCODE": "E09000012", "HECTARES": 53.498, "NONLD_AREA": 0.0 }, "geometry": null },
{ "type": "Feature", "properties": { "NAME": "Victoria", "GSS_CODE": "E05009386", "DISTRICT": "Hackney", "LAGSSCODE": "E09000012", "HECTARES": 76.086, "NONLD_AREA": 0.0 }, "geometry": null },
{ "type": "Feature", "properties": { "NAME": "Hackney Central", "GSS_CODE": "E05009372", "DISTRICT": "Hackney", "LAGSSCODE": "E09000012", "HECTARES": 77.834, "NONLD_AREA": 0.0 }, "geometry": null },
{ "type": "Feature", "properties": { "NAME": "Homerton", "GSS_CODE": "E05009376", "DISTRICT": "Hackney", "LAGSSCODE": "E09000012", "HECTARES": 80.508, "NONLD_AREA": 0.0 }, "geometry": null },
{ "type": "Feature", "properties": { "NAME": "Shacklewell", "GSS_CODE": "E05009382", "DISTRICT": "Hackney", "LAGSSCODE": "E09000012", "HECTARES": 43.221, "NONLD_AREA": 0.0 }, "geometry": null },
{ "type": "Feature", "properties": { "NAME": "Stoke Newington", "GSS_CODE": "E05009385", "DISTRICT": "Hackney", "LAGSSCODE": "E09000012", "HECTARES": 96.182, "NONLD_AREA": 0.0 }, "geometry": null },
{ "type": "Feature", "properties": { "NAME": "Woodberry Down", "GSS_CODE": "E05009387", "DISTRICT": "Hackney", "LAGSSCODE": "E09000012", "HECTARES": 88.08, "NONLD_AREA": 0.0 }, "geometry": null },
{ "type": "Feature", "properties": { "NAME": "Stamford Hill West", "GSS_CODE": "E05009384", "DISTRICT": "Hackney", "LAGSSCODE": "E09000012", "HECTARES": 66.974, "NONLD_AREA": 0.0 }, "geometry": null },
{ "type": "Feature", "properties": { "NAME": "Highgate", "GSS_CODE": "E05000272", "DISTRICT": "Haringey", "LAGSSCODE": "E09000014", "HECTARES": 249.482, "NONLD_AREA": 0.0 }, "geometry": null },
{ "type": "Feature", "properties": { "NAME": "Harringay", "GSS_CODE": "E05000271", "DISTRICT": "Haringey", "LAGSSCODE": "E09000014", "HECTARES": 156.609, "NONLD_AREA": 0.0 }, "geometry": null },
{ "type": "Feature", "properties": { "NAME": "Fortis Green", "GSS_CODE": "E05000270", "DISTRICT": "Haringey", "LAGSSCODE": "E09000014", "HECTARES": 199.071, "NONLD_AREA": 0.0 }, "geometry": null },
{ "type": "Feature", "properties": { "NAME": "Bounds Green", "GSS_CODE": "E05000267", "DISTRICT": "Haringey", "LAGSSCODE": "E09000014", "HECTARES": 138.624, "NONLD_AREA": 0.0 }, "geometry": null },
{ "type": "Feature", "properties": { "NAME": "Crouch End", "GSS_CODE": "E05000269", "DISTRICT": "Haringey", "LAGSSCODE": "E09000014", "HECTARES": 144.04, "NONLD_AREA": 0.0 }, "geometry": null },
{ "type": "Feature", "properties": { "NAME": "Stroud Green", "GSS_CODE": "E05000279", "DISTRICT": "Haringey", "LAGSSCODE": "E09000014", "HECTARES": 109.374, "NONLD_AREA": 0.0 }, "geometry": null },
{ "type": "Feature", "properties": { "NAME": "Muswell Hill", "GSS_CODE": "E05000274", "DISTRICT": "Haringey", "LAGSSCODE": "E09000014", "HECTARES": 165.328, "NONLD_AREA": 0.0 }, "geometry": null },
{ "type": "Feature", "properties": { "NAME": "Hornsey", "GSS_CODE": "E05000273", "DISTRICT": "Haringey", "LAGSSCODE": "E09000014", "HECTARES": 105.39, "NONLD_AREA": 0.0 }, "geometry": null },
{ "type": "Feature", "properties": { "NAME": "Alexandra", "GSS_CODE": "E05000266", "DISTRICT": "Haringey", "LAGSSCODE": "E09000014", "HECTARES": 261.385, "NONLD_AREA": 0.0 }, "geometry": null },
{ "type": "Feature", "properties": { "NAME": "Noel Park", "GSS_CODE": "E05000275", "DISTRICT": "Haringey", "LAGSSCODE": "E09000014", "HECTARES": 122.564, "NONLD_AREA": 0.0 }, "geometry": null },
{ "type": "Feature", "properties": { "NAME": "Woodside", "GSS_CODE": "E05000284", "DISTRICT": "Haringey", "LAGSSCODE": "E09000014", "HECTARES": 149.715, "NONLD_AREA": 0.0 }, "geometry": null },
{ "type": "Feature", "properties": { "NAME": "St. Ann's", "GSS_CODE": "E05000277", "DISTRICT": "Haringey", "LAGSSCODE": "E09000014", "HECTARES": 109.381, "NONLD_AREA": 0.0 }, "geometry": null },
{ "type": "Feature", "properties": { "NAME": "Seven Sisters", "GSS_CODE": "E05000278", "DISTRICT": "Haringey", "LAGSSCODE": "E09000014", "HECTARES": 129.463, "NONLD_AREA": 0.0 }, "geometry": null },
{ "type": "Feature", "properties": { "NAME": "Tottenham Green", "GSS_CODE": "E05000280", "DISTRICT": "Haringey", "LAGSSCODE": "E09000014", "HECTARES": 135.966, "NONLD_AREA": 0.0 }, "geometry": null },
{ "type": "Feature", "properties": { "NAME": "West Green", "GSS_CODE": "E05000282", "DISTRICT": "Haringey", "LAGSSCODE": "E09000014", "HECTARES": 139.911, "NONLD_AREA": 0.0 }, "geometry": null },
{ "type": "Feature", "properties": { "NAME": "Tottenham Hale", "GSS_CODE": "E05000281", "DISTRICT": "Haringey", "LAGSSCODE": "E09000014", "HECTARES": 191.189, "NONLD_AREA": 0.0 }, "geometry": null },
{ "type": "Feature", "properties": { "NAME": "White Hart Lane", "GSS_CODE": "E05000283", "DISTRICT": "Haringey", "LAGSSCODE": "E09000014", "HECTARES": 169.885, "NONLD_AREA": 0.0 }, "geometry": null },
{ "type": "Feature", "properties": { "NAME": "Bruce Grove", "GSS_CODE": "E05000268", "DISTRICT": "Haringey", "LAGSSCODE": "E09000014", "HECTARES": 93.658, "NONLD_AREA": 0.0 }, "geometry": null },
{ "type": "Feature", "properties": { "NAME": "Northumberland Park", "GSS_CODE": "E05000276", "DISTRICT": "Haringey", "LAGSSCODE": "E09000014", "HECTARES": 188.802, "NONLD_AREA": 0.0 }, "geometry": null },
{ "type": "Feature", "properties": { "NAME": "Royal Docks", "GSS_CODE": "E05000491", "DISTRICT": "Newham", "LAGSSCODE": "E09000025", "HECTARES": 473.052, "NONLD_AREA": 142.283 }, "geometry": null },
{ "type": "Feature", "properties": { "NAME": "Canning Town North", "GSS_CODE": "E05000477", "DISTRICT": "Newham", "LAGSSCODE": "E09000025", "HECTARES": 252.085, "NONLD_AREA": 6.136 }, "geometry": null },
{ "type": "Feature", "properties": { "NAME": "Beckton", "GSS_CODE": "E05000475", "DISTRICT": "Newham", "LAGSSCODE": "E09000025", "HECTARES": 625.188, "NONLD_AREA": 70.665 }, "geometry": null },
{ "type": "Feature", "properties": { "NAME": "East Ham South", "GSS_CODE": "E05000482", "DISTRICT": "Newham", "LAGSSCODE": "E09000025", "HECTARES": 180.899, "NONLD_AREA": 1.742 }, "geometry": null },
{ "type": "Feature", "properties": { "NAME": "Stratford and New Town", "GSS_CODE": "E05000492", "DISTRICT": "Newham", "LAGSSCODE": "E09000025", "HECTARES": 423.497, "NONLD_AREA": 4.518 }, "geometry": null },
{ "type": "Feature", "properties": { "NAME": "Canning Town South", "GSS_CODE": "E05000478", "DISTRICT": "Newham", "LAGSSCODE": "E09000025", "HECTARES": 180.875, "NONLD_AREA": 12.292 }, "geometry": null },
{ "type": "Feature", "properties": { "NAME": "Custom House", "GSS_CODE": "E05000479", "DISTRICT": "Newham", "LAGSSCODE": "E09000025", "HECTARES": 206.344, "NONLD_AREA": 0.0 }, "geometry": null },
{ "type": "Feature", "properties": { "NAME": "Plaistow South", "GSS_CODE": "E05000490", "DISTRICT": "Newham", "LAGSSCODE": "E09000025", "HECTARES": 138.452, "NONLD_AREA": 0.0 }, "geometry": null },
{ "type": "Feature", "properties": { "NAME": "West Ham", "GSS_CODE": "E05000494", "DISTRICT": "Newham", "LAGSSCODE": "E09000025", "HECTARES": 133.7, "NONLD_AREA": 0.0 }, "geometry": null },
{ "type": "Feature", "properties": { "NAME": "Plaistow North", "GSS_CODE": "E05000489", "DISTRICT": "Newham", "LAGSSCODE": "E09000025", "HECTARES": 98.418, "NONLD_AREA": 0.0 }, "geometry": null },
{ "type": "Feature", "properties": { "NAME": "Forest Gate South", "GSS_CODE": "E05000484", "DISTRICT": "Newham", "LAGSSCODE": "E09000025", "HECTARES": 119.115, "NONLD_AREA": 0.0 }, "geometry": null },
{ "type": "Feature", "properties": { "NAME": "Boleyn", "GSS_CODE": "E05000476", "DISTRICT": "Newham", "LAGSSCODE": "E09000025", "HECTARES": 91.718, "NONLD_AREA": 0.0 }, "geometry": null },
{ "type": "Feature", "properties": { "NAME": "East Ham Central", "GSS_CODE": "E05000480", "DISTRICT": "Newham", "LAGSSCODE": "E09000025", "HECTARES": 103.197, "NONLD_AREA": 0.0 }, "geometry": null },
{ "type": "Feature", "properties": { "NAME": "Green Street West", "GSS_CODE": "E05000486", "DISTRICT": "Newham", "LAGSSCODE": "E09000025", "HECTARES": 80.281, "NONLD_AREA": 0.0 }, "geometry": null },
{ "type": "Feature", "properties": { "NAME": "Green Street East", "GSS_CODE": "E05000485", "DISTRICT": "Newham", "LAGSSCODE": "E09000025", "HECTARES": 74.631, "NONLD_AREA": 0.0 }, "geometry": null },
{ "type": "Feature", "properties": { "NAME": "East Ham North", "GSS_CODE": "E05000481", "DISTRICT": "Newham", "LAGSSCODE": "E09000025", "HECTARES": 90.464, "NONLD_AREA": 0.0 }, "geometry": null },
{ "type": "Feature", "properties": { "NAME": "Wall End", "GSS_CODE": "E05000493", "DISTRICT": "Newham", "LAGSSCODE": "E09000025", "HECTARES": 137.675, "NONLD_AREA": 0.0 }, "geometry": null },
{ "type": "Feature", "properties": { "NAME": "Forest Gate North", "GSS_CODE": "E05000483", "DISTRICT": "Newham", "LAGSSCODE": "E09000025", "HECTARES": 124.768, "NONLD_AREA": 0.0 }, "geometry": null },
{ "type": "Feature", "properties": { "NAME": "Manor Park", "GSS_CODE": "E05000488", "DISTRICT": "Newham", "LAGSSCODE": "E09000025", "HECTARES": 133.487, "NONLD_AREA": 0.0 }, "geometry": null },
{ "type": "Feature", "properties": { "NAME": "Little Ilford", "GSS_CODE": "E05000487", "DISTRICT": "Newham", "LAGSSCODE": "E09000025", "HECTARES": 189.961, "NONLD_AREA": 0.0 }, "geometry": null },
{ "type": "Feature", "properties": { "NAME": "Gascoigne", "GSS_CODE": "E05000032", "DISTRICT": "Barking and Dagenham", "LAGSSCODE": "E09000002", "HECTARES": 113.874, "NONLD_AREA": 4.906 }, "geometry": null },
{ "type": "Feature", "properties": { "NAME": "Thames", "GSS_CODE": "E05000039", "DISTRICT": "Barking and Dagenham", "LAGSSCODE": "E09000002", "HECTARES": 788.848, "NONLD_AREA": 120.125 }, "geometry": null },
{ "type": "Feature", "properties": { "NAME": "River", "GSS_CODE": "E05000038", "DISTRICT": "Barking and Dagenham", "LAGSSCODE": "E09000002", "HECTARES": 354.369, "NONLD_AREA": 41.464 }, "geometry": null },
{ "type": "Feature", "properties": { "NAME": "Village", "GSS_CODE": "E05000041", "DISTRICT": "Barking and Dagenham", "LAGSSCODE": "E09000002", "HECTARES": 214.748, "NONLD_AREA": 0.0 }, "geometry": null },
{ "type": "Feature", "properties": { "NAME": "Abbey", "GSS_CODE": "E05000026", "DISTRICT": "Barking and Dagenham", "LAGSSCODE": "E09000002", "HECTARES": 128.292, "NONLD_AREA": 2.655 }, "geometry": null },
{ "type": "Feature", "properties": { "NAME": "Longbridge", "GSS_CODE": "E05000035", "DISTRICT": "Barking and Dagenham", "LAGSSCODE": "E09000002", "HECTARES": 164.53, "NONLD_AREA": 0.0 }, "geometry": null },
{ "type": "Feature", "properties": { "NAME": "Eastbury", "GSS_CODE": "E05000031", "DISTRICT": "Barking and Dagenham", "LAGSSCODE": "E09000002", "HECTARES": 143.921, "NONLD_AREA": 0.0 }, "geometry": null },
{ "type": "Feature", "properties": { "NAME": "Goresbrook", "GSS_CODE": "E05000033", "DISTRICT": "Barking and Dagenham", "LAGSSCODE": "E09000002", "HECTARES": 127.782, "NONLD_AREA": 0.0 }, "geometry": null },
{ "type": "Feature", "properties": { "NAME": "Mayesbrook", "GSS_CODE": "E05000036", "DISTRICT": "Barking and Dagenham", "LAGSSCODE": "E09000002", "HECTARES": 185.642, "NONLD_AREA": 0.0 }, "geometry": null },
{ "type": "Feature", "properties": { "NAME": "Becontree", "GSS_CODE": "E05000028", "DISTRICT": "Barking and Dagenham", "LAGSSCODE": "E09000002", "HECTARES": 128.809, "NONLD_AREA": 0.0 }, "geometry": null },
{ "type": "Feature", "properties": { "NAME": "Alibon", "GSS_CODE": "E05000027", "DISTRICT": "Barking and Dagenham", "LAGSSCODE": "E09000002", "HECTARES": 136.442, "NONLD_AREA": 0.0 }, "geometry": null },
{ "type": "Feature", "properties": { "NAME": "Valence", "GSS_CODE": "E05000040", "DISTRICT": "Barking and Dagenham", "LAGSSCODE": "E09000002", "HECTARES": 129.284, "NONLD_AREA": 0.0 }, "geometry": null },
{ "type": "Feature", "properties": { "NAME": "Heath", "GSS_CODE": "E05000034", "DISTRICT": "Barking and Dagenham", "LAGSSCODE": "E09000002", "HECTARES": 200.128, "NONLD_AREA": 0.0 }, "geometry": null },
{ "type": "Feature", "properties": { "NAME": "Whalebone", "GSS_CODE": "E05000042", "DISTRICT": "Barking and Dagenham", "LAGSSCODE": "E09000002", "HECTARES": 155.399, "NONLD_AREA": 0.0 }, "geometry": null },
{ "type": "Feature", "properties": { "NAME": "Eastbrook", "GSS_CODE": "E05000030", "DISTRICT": "Barking and Dagenham", "LAGSSCODE": "E09000002", "HECTARES": 345.06, "NONLD_AREA": 0.0 }, "geometry": null },
{ "type": "Feature", "properties": { "NAME": "Chadwell Heath", "GSS_CODE": "E05000029", "DISTRICT": "Barking and Dagenham", "LAGSSCODE": "E09000002", "HECTARES": 338.422, "NONLD_AREA": 0.0 }, "geometry": null },
{ "type": "Feature", "properties": { "NAME": "Parsloes", "GSS_CODE": "E05000037", "DISTRICT": "Barking and Dagenham", "LAGSSCODE": "E09000002", "HECTARES": 124.384, "NONLD_AREA": 0.0 }, "geometry": null },
{ "type": "Feature", "properties": { "NAME": "Castle Baynard", "GSS_CODE": "E05009297", "DISTRICT": "City and County of the City of London", "LAGSSCODE": "E09000001", "HECTARES": 314.943, "NONLD_AREA": 24.546 }, "geometry": null }
]
}
